<?xml version="1.0" encoding="utf-8"?><table><row id=""><stop_lon>8.88791</stop_lon><stop_id>654</stop_id><stop_code></stop_code><stop_lat>45.870643</stop_lat><stop_url> </stop_url><stop_desc> </stop_desc><stop_name>BISUSCHIO-VIGGIU'</stop_name><location_type>0</location_type><parent_station> </parent_station></row><row id=""><stop_lon>9.422563</stop_lon><stop_id>3015</stop_id><stop_code></stop_code><stop_lat>45.812724</stop_lat><stop_url> </stop_url><stop_desc> </stop_desc><stop_name>VERCURAGO S.GIROLAMO</stop_name><location_type>0</location_type><parent_station> </parent_station></row><row id=""><stop_lon>10.329482</stop_lon><stop_id>5051</stop_id><stop_code></stop_code><stop_lat>46.177007</stop_lat><stop_url> </stop_url><stop_desc> </stop_desc><stop_name>EDOLO</stop_name><location_type>0</location_type><parent_station> </parent_station></row><row id=""><stop_lon>9.22185</stop_lon><stop_id>1863</stop_id><stop_code></stop_code><stop_lat>45.178212</stop_lat><stop_url> </stop_url><stop_desc> </stop_desc><stop_name>MOTTA S.DAMIANO</stop_name><location_type>0</location_type><parent_station> </parent_station></row><row id=""><stop_lon>9.141317</stop_lon><stop_id>5072</stop_id><stop_code></stop_code><stop_lat>45.612041</stop_lat><stop_url> </stop_url><stop_desc> </stop_desc><stop_name>BOVISIO MASCIAGO-MOMBELLO</stop_name><location_type>0</location_type><parent_station> </parent_station></row><row id=""><stop_lon>9.153331</stop_lon><stop_id>5071</stop_id><stop_code></stop_code><stop_lat>45.595605</stop_lat><stop_url> </stop_url><stop_desc> </stop_desc><stop_name>VAREDO</stop_name><location_type>0</location_type><parent_station> </parent_station></row><row id=""><stop_lon>9.550633</stop_lon><stop_id>1949</stop_id><stop_code></stop_code><stop_lat>45.166951</stop_lat><stop_url> </stop_url><stop_desc> </stop_desc><stop_name>ORIO LITTA</stop_name><location_type>0</location_type><parent_station> </parent_station></row><row id=""><stop_lon>9.008757</stop_lon><stop_id>3123</stop_id><stop_code></stop_code><stop_lat>44.997662</stop_lat><stop_url> </stop_url><stop_desc> </stop_desc><stop_name>VOGHERA</stop_name><location_type>0</location_type><parent_station> </parent_station></row><row id=""><stop_lon>8.559422</stop_lon><stop_id>461</stop_id><stop_code></stop_code><stop_lat>45.755643</stop_lat><stop_url> </stop_url><stop_desc> </stop_desc><stop_name>ARONA</stop_name><location_type>0</location_type><parent_station> </parent_station></row><row id=""><stop_lon>8.946562</stop_lon><stop_id>2033</stop_id><stop_code></stop_code><stop_lat>45.552506</stop_lat><stop_url> </stop_url><stop_desc> </stop_desc><stop_name>PARABIAGO</stop_name><location_type>0</location_type><parent_station> </parent_station></row><row id=""><stop_lon>9.232295</stop_lon><stop_id>5096</stop_id><stop_code></stop_code><stop_lat>45.835146</stop_lat><stop_url> </stop_url><stop_desc> </stop_desc><stop_name>CASLINO D'ERBA</stop_name><location_type>0</location_type><parent_station> </parent_station></row><row id=""><stop_lon>8.674076</stop_lon><stop_id>2260</stop_id><stop_code></stop_code><stop_lat>45.958389</stop_lat><stop_url> </stop_url><stop_desc> </stop_desc><stop_name>PORTO VALTRAVAGLIA</stop_name><location_type>0</location_type><parent_station> </parent_station></row><row id=""><stop_lon>9.334995</stop_lon><stop_id>365</stop_id><stop_code></stop_code><stop_lat>45.895595</stop_lat><stop_url> </stop_url><stop_desc> </stop_desc><stop_name>ABBADIA LARIANA</stop_name><location_type>0</location_type><parent_station> </parent_station></row><row id=""><stop_lon>10.371778</stop_lon><stop_id>866</stop_id><stop_code></stop_code><stop_lat>45.150149</stop_lat><stop_url> </stop_url><stop_desc> </stop_desc><stop_name>CANNETO SULL'OGLIO</stop_name><location_type>0</location_type><parent_station> </parent_station></row><row id=""><stop_lon>9.13083</stop_lon><stop_id>1721</stop_id><stop_code></stop_code><stop_lat>45.44294</stop_lat><stop_url> </stop_url><stop_desc> </stop_desc><stop_name>MILANO S.CRISTOFORO</stop_name><location_type>0</location_type><parent_station> </parent_station></row><row id=""><stop_lon>9.350645</stop_lon><stop_id>2151</stop_id><stop_code></stop_code><stop_lat>46.124753</stop_lat><stop_url> </stop_url><stop_desc> </stop_desc><stop_name>PIONA</stop_name><location_type>0</location_type><parent_station> </parent_station></row><row id=""><stop_lon>9.223843</stop_lon><stop_id>1718</stop_id><stop_code></stop_code><stop_lat>45.459875</stop_lat><stop_url> </stop_url><stop_desc> </stop_desc><stop_name>MILANO PORTA VITTORIA</stop_name><location_type>0</location_type><parent_station> </parent_station></row><row id=""><stop_lon>9.449881</stop_lon><stop_id>1739</stop_id><stop_code></stop_code><stop_lat>45.161988</stop_lat><stop_url> </stop_url><stop_desc> </stop_desc><stop_name>MIRADOLO TERME</stop_name><location_type>0</location_type><parent_station> </parent_station></row><row id=""><stop_lon>10.783349</stop_lon><stop_id>1639</stop_id><stop_code></stop_code><stop_lat>45.158657</stop_lat><stop_url> </stop_url><stop_desc> </stop_desc><stop_name>MANTOVA</stop_name><location_type>0</location_type><parent_station> </parent_station></row><row id=""><stop_lon>9.066427</stop_lon><stop_id>5062</stop_id><stop_code></stop_code><stop_lat>45.590796</stop_lat><stop_url> </stop_url><stop_desc> </stop_desc><stop_name>CESATE</stop_name><location_type>0</location_type><parent_station> </parent_station></row><row id=""><stop_lon>10.017949</stop_lon><stop_id>1202</stop_id><stop_code></stop_code><stop_lat>45.143044</stop_lat><stop_url> </stop_url><stop_desc> </stop_desc><stop_name>CREMONA</stop_name><location_type>0</location_type><parent_station> </parent_station></row><row id=""><stop_lon>9.213908</stop_lon><stop_id>1711</stop_id><stop_code></stop_code><stop_lat>45.512309</stop_lat><stop_url> </stop_url><stop_desc> </stop_desc><stop_name>MILANO GRECO PIRELLI</stop_name><location_type>0</location_type><parent_station> </parent_station></row><row id=""><stop_lon>9.703248</stop_lon><stop_id>1848</stop_id><stop_code></stop_code><stop_lat>45.521721</stop_lat><stop_url> </stop_url><stop_desc> </stop_desc><stop_name>MORENGO BARIANO</stop_name><location_type>0</location_type><parent_station> </parent_station></row><row id=""><stop_lon>8.630919</stop_lon><stop_id>2636</stop_id><stop_code></stop_code><stop_lat>45.874453</stop_lat><stop_url> </stop_url><stop_desc> </stop_desc><stop_name>SANGIANO</stop_name><location_type>0</location_type><parent_station> </parent_station></row><row id=""><stop_lon>8.628505</stop_lon><stop_id>2713</stop_id><stop_code></stop_code><stop_lat>45.725978</stop_lat><stop_url> </stop_url><stop_desc> </stop_desc><stop_name>SESTO CALENDE</stop_name><location_type>0</location_type><parent_station> </parent_station></row><row id=""><stop_lon>8.416745</stop_lon><stop_id>3014</stop_id><stop_code></stop_code><stop_lat>45.329831</stop_lat><stop_url> </stop_url><stop_desc> </stop_desc><stop_name>VERCELLI</stop_name><location_type>0</location_type><parent_station> </parent_station></row><row id=""><stop_lon>9.13268</stop_lon><stop_id>819</stop_id><stop_code></stop_code><stop_lat>45.66938</stop_lat><stop_url> </stop_url><stop_desc> </stop_desc><stop_name>CAMNAGO-LENTATE</stop_name><location_type>0</location_type><parent_station> </parent_station></row><row id=""><stop_lon>8.927094</stop_lon><stop_id>1407</stop_id><stop_code></stop_code><stop_lat>45.198938</stop_lat><stop_url> </stop_url><stop_desc> </stop_desc><stop_name>GARLASCO</stop_name><location_type>0</location_type><parent_station> </parent_station></row><row id=""><stop_lon>9.141934</stop_lon><stop_id>5073</stop_id><stop_code></stop_code><stop_lat>45.630808</stop_lat><stop_url> </stop_url><stop_desc> </stop_desc><stop_name>CESANO MADERNO</stop_name><location_type>0</location_type><parent_station> </parent_station></row><row id=""><stop_lon>9.175915</stop_lon><stop_id>1713</stop_id><stop_code></stop_code><stop_lat>45.495387</stop_lat><stop_url> </stop_url><stop_desc> </stop_desc><stop_name>MILANO LANCETTI</stop_name><location_type>0</location_type><parent_station> </parent_station></row><row id=""><stop_lon>9.230066</stop_lon><stop_id>5094</stop_id><stop_code></stop_code><stop_lat>45.81309</stop_lat><stop_url> </stop_url><stop_desc> </stop_desc><stop_name>ERBA</stop_name><location_type>0</location_type><parent_station> </parent_station></row><row id=""><stop_lon>8.811416</stop_lon><stop_id>5320</stop_id><stop_code></stop_code><stop_lat>45.814995</stop_lat><stop_url> </stop_url><stop_desc> </stop_desc><stop_name>VARESE CASBENO</stop_name><location_type>0</location_type><parent_station> </parent_station></row><row id=""><stop_lon>9.461144</stop_lon><stop_id>1225</stop_id><stop_code></stop_code><stop_lat>46.138556</stop_lat><stop_url> </stop_url><stop_desc> </stop_desc><stop_name>DELEBIO</stop_name><location_type>0</location_type><parent_station> </parent_station></row><row id=""><stop_lon>10.486853</stop_lon><stop_id>1586</stop_id><stop_code></stop_code><stop_lat>45.457282</stop_lat><stop_url> </stop_url><stop_desc> </stop_desc><stop_name>LONATO</stop_name><location_type>0</location_type><parent_station> </parent_station></row><row id=""><stop_lon>9.753488</stop_lon><stop_id>2419</stop_id><stop_code></stop_code><stop_lat>45.523661</stop_lat><stop_url> </stop_url><stop_desc> </stop_desc><stop_name>ROMANO</stop_name><location_type>0</location_type><parent_station> </parent_station></row><row id=""><stop_lon>9.480659</stop_lon><stop_id>2910</stop_id><stop_code></stop_code><stop_lat>45.512828</stop_lat><stop_url> </stop_url><stop_desc> </stop_desc><stop_name>TRECELLA</stop_name><location_type>0</location_type><parent_station> </parent_station></row><row id=""><stop_lon>9.512782</stop_lon><stop_id>951</stop_id><stop_code></stop_code><stop_lat>45.514463</stop_lat><stop_url> </stop_url><stop_desc> </stop_desc><stop_name>CASSANO D'ADDA</stop_name><location_type>0</location_type><parent_station> </parent_station></row><row id=""><stop_lon>8.327189</stop_lon><stop_id>2290</stop_id><stop_code></stop_code><stop_lat>46.002454</stop_lat><stop_url> </stop_url><stop_desc> </stop_desc><stop_name>PREMOSELLO CHIOVENDA</stop_name><location_type>0</location_type><parent_station> </parent_station></row><row id=""><stop_lon>9.254498</stop_lon><stop_id>2487</stop_id><stop_code></stop_code><stop_lat>45.419525</stop_lat><stop_url> </stop_url><stop_desc> </stop_desc><stop_name>S.DONATO MILANESE</stop_name><location_type>0</location_type><parent_station> </parent_station></row><row id=""><stop_lon>10.473034</stop_lon><stop_id>725</stop_id><stop_code></stop_code><stop_lat>45.10731</stop_lat><stop_url> </stop_url><stop_desc> </stop_desc><stop_name>BOZZOLO</stop_name><location_type>0</location_type><parent_station> </parent_station></row><row id=""><stop_lon>10.409101</stop_lon><stop_id>2222</stop_id><stop_code></stop_code><stop_lat>45.473881</stop_lat><stop_url> </stop_url><stop_desc> </stop_desc><stop_name>PONTE S.MARCO-CALCINATO</stop_name><location_type>0</location_type><parent_station> </parent_station></row><row id=""><stop_lon>8.920418</stop_lon><stop_id>367</stop_id><stop_code></stop_code><stop_lat>45.397525</stop_lat><stop_url> </stop_url><stop_desc> </stop_desc><stop_name>ABBIATEGRASSO</stop_name><location_type>0</location_type><parent_station> </parent_station></row><row id=""><stop_lon>10.001791</stop_lon><stop_id>5373</stop_id><stop_code></stop_code><stop_lat>45.552552</stop_lat><stop_url> </stop_url><stop_desc> </stop_desc><stop_name>ROVATO BORGO</stop_name><location_type>0</location_type><parent_station> </parent_station></row><row id=""><stop_lon>10.093303</stop_lon><stop_id>5364</stop_id><stop_code></stop_code><stop_lat>45.738352</stop_lat><stop_url> </stop_url><stop_desc> </stop_desc><stop_name>MARONE-ZONE</stop_name><location_type>0</location_type><parent_station> </parent_station></row><row id=""><stop_lon>8.71457</stop_lon><stop_id>5323</stop_id><stop_code></stop_code><stop_lat>45.845677</stop_lat><stop_url> </stop_url><stop_desc> </stop_desc><stop_name>GAVIRATE</stop_name><location_type>0</location_type><parent_station> </parent_station></row><row id=""><stop_lon>8.890402</stop_lon><stop_id>5316</stop_id><stop_code></stop_code><stop_lat>45.758058</stop_lat><stop_url> </stop_url><stop_desc> </stop_desc><stop_name>VENEGONO SUPERIORE-CASTIGLIONE</stop_name><location_type>0</location_type><parent_station> </parent_station></row><row id=""><stop_lon>9.0363</stop_lon><stop_id>5338</stop_id><stop_code></stop_code><stop_lat>45.698677</stop_lat><stop_url> </stop_url><stop_desc> </stop_desc><stop_name>LOMAZZO</stop_name><location_type>0</location_type><parent_station> </parent_station></row><row id=""><stop_lon>9.21313</stop_lon><stop_id>1717</stop_id><stop_code></stop_code><stop_lat>45.445782</stop_lat><stop_url> </stop_url><stop_desc> </stop_desc><stop_name>MILANO PORTA ROMANA</stop_name><location_type>0</location_type><parent_station> </parent_station></row><row id=""><stop_lon>8.531605</stop_lon><stop_id>2793</stop_id><stop_code></stop_code><stop_lat>45.884624</stop_lat><stop_url> </stop_url><stop_desc> </stop_desc><stop_name>STRESA</stop_name><location_type>0</location_type><parent_station> </parent_station></row><row id=""><stop_lon>9.375517</stop_lon><stop_id>1188</stop_id><stop_code></stop_code><stop_lat>45.15964</stop_lat><stop_url> </stop_url><stop_desc> </stop_desc><stop_name>CORTEOLONA</stop_name><location_type>0</location_type><parent_station> </parent_station></row><row id=""><stop_lon>9.172951</stop_lon><stop_id>5409</stop_id><stop_code></stop_code><stop_lat>45.550072</stop_lat><stop_url> </stop_url><stop_desc> </stop_desc><stop_name>CORMANO-CUSANO MILANINO</stop_name><location_type>0</location_type><parent_station> </parent_station></row><row id=""><stop_lon>10.604669</stop_lon><stop_id>1973</stop_id><stop_code></stop_code><stop_lat>45.129843</stop_lat><stop_url> </stop_url><stop_desc> </stop_desc><stop_name>OSPITALETTO MANTOVANO</stop_name><location_type>0</location_type><parent_station> </parent_station></row><row id=""><stop_lon>9.03743</stop_lon><stop_id>3095</stop_id><stop_code></stop_code><stop_lat>45.156962</stop_lat><stop_url> </stop_url><stop_desc> </stop_desc><stop_name>VILLANOVA D'ARDENGHI</stop_name><location_type>0</location_type><parent_station> </parent_station></row><row id=""><stop_lon>8.296252</stop_lon><stop_id>1253</stop_id><stop_code></stop_code><stop_lat>46.115385</stop_lat><stop_url> </stop_url><stop_desc> </stop_desc><stop_name>DOMODOSSOLA</stop_name><location_type>0</location_type><parent_station> </parent_station></row><row id=""><stop_lon>8.947603</stop_lon><stop_id>3119</stop_id><stop_code></stop_code><stop_lat>45.490995</stop_lat><stop_url> </stop_url><stop_desc> </stop_desc><stop_name>VITTUONE ARLUNO</stop_name><location_type>0</location_type><parent_station> </parent_station></row><row id=""><stop_lon>8.472095</stop_lon><stop_id>3012</stop_id><stop_code></stop_code><stop_lat>45.943831</stop_lat><stop_url> </stop_url><stop_desc> </stop_desc><stop_name>VERBANIA-PALLANZA</stop_name><location_type>0</location_type><parent_station> </parent_station></row><row id=""><stop_lon>9.235422</stop_lon><stop_id>1581</stop_id><stop_code></stop_code><stop_lat>45.606101</stop_lat><stop_url> </stop_url><stop_desc> </stop_desc><stop_name>LISSONE-MUGGIO'</stop_name><location_type>0</location_type><parent_station> </parent_station></row><row id=""><stop_lon>9.266799</stop_lon><stop_id>2930</stop_id><stop_code></stop_code><stop_lat>45.658954</stop_lat><stop_url> </stop_url><stop_desc> </stop_desc><stop_name>TRIUGGIO-PONTE ALBIATE</stop_name><location_type>0</location_type><parent_station> </parent_station></row><row id=""><stop_lon>9.549094</stop_lon><stop_id>2435</stop_id><stop_code></stop_code><stop_lat>45.060485</stop_lat><stop_url> </stop_url><stop_desc> </stop_desc><stop_name>ROTTOFRENO</stop_name><location_type>0</location_type><parent_station> </parent_station></row><row id=""><stop_lon>8.755505</stop_lon><stop_id>5265</stop_id><stop_code></stop_code><stop_lat>45.608521</stop_lat><stop_url> </stop_url><stop_desc> </stop_desc><stop_name>FERNO-LONATE POZZOLO</stop_name><location_type>0</location_type><parent_station> </parent_station></row><row id=""><stop_lon>9.376343</stop_lon><stop_id>3061</stop_id><stop_code></stop_code><stop_lat>45.494285</stop_lat><stop_url> </stop_url><stop_desc> </stop_desc><stop_name>VIGNATE</stop_name><location_type>0</location_type><parent_station> </parent_station></row><row id=""><stop_lon>9.047112</stop_lon><stop_id>3380</stop_id><stop_code></stop_code><stop_lat>45.138885</stop_lat><stop_url> </stop_url><stop_desc> </stop_desc><stop_name>SAIRANO</stop_name><location_type>0</location_type><parent_station> </parent_station></row><row id=""><stop_lon>9.110914</stop_lon><stop_id>737</stop_id><stop_code></stop_code><stop_lat>45.086335</stop_lat><stop_url> </stop_url><stop_desc> </stop_desc><stop_name>BRESSANA BOTTARONE</stop_name><location_type>0</location_type><parent_station> </parent_station></row><row id=""><stop_lon>10.078712</stop_lon><stop_id>2392</stop_id><stop_code></stop_code><stop_lat>45.266218</stop_lat><stop_url> </stop_url><stop_desc> </stop_desc><stop_name>ROBECCO-PONTEVICO</stop_name><location_type>0</location_type><parent_station> </parent_station></row><row id=""><stop_lon>10.105751</stop_lon><stop_id>5152</stop_id><stop_code></stop_code><stop_lat>45.806558</stop_lat><stop_url> </stop_url><stop_desc> </stop_desc><stop_name>PISOGNE</stop_name><location_type>0</location_type><parent_station> </parent_station></row><row id=""><stop_lon>9.396974</stop_lon><stop_id>1066</stop_id><stop_code></stop_code><stop_lat>45.695045</stop_lat><stop_url> </stop_url><stop_desc> </stop_desc><stop_name>CERNUSCO-MERATE</stop_name><location_type>0</location_type><parent_station> </parent_station></row><row id=""><stop_lon>9.47058</stop_lon><stop_id>811</stop_id><stop_code></stop_code><stop_lat>45.684324</stop_lat><stop_url> </stop_url><stop_desc> </stop_desc><stop_name>CALUSCO</stop_name><location_type>0</location_type><parent_station> </parent_station></row><row id=""><stop_lon>9.099528</stop_lon><stop_id>873</stop_id><stop_code></stop_code><stop_lat>45.71613</stop_lat><stop_url> </stop_url><stop_desc> </stop_desc><stop_name>CANTU'-CERMENATE</stop_name><location_type>0</location_type><parent_station> </parent_station></row><row id=""><stop_lon>9.360389</stop_lon><stop_id>457</stop_id><stop_code></stop_code><stop_lat>45.08214</stop_lat><stop_url> </stop_url><stop_desc> </stop_desc><stop_name>ARENA PO</stop_name><location_type>0</location_type><parent_station> </parent_station></row><row id=""><stop_lon>8.878385</stop_lon><stop_id>5318</stop_id><stop_code></stop_code><stop_lat>45.795407</stop_lat><stop_url> </stop_url><stop_desc> </stop_desc><stop_name>MALNATE</stop_name><location_type>0</location_type><parent_station> </parent_station></row><row id=""><stop_lon>8.803742</stop_lon><stop_id>1046</stop_id><stop_code></stop_code><stop_lat>45.698179</stop_lat><stop_url> </stop_url><stop_desc> </stop_desc><stop_name>CAVARIA OGGIONA IERAGO</stop_name><location_type>0</location_type><parent_station> </parent_station></row><row id=""><stop_lon>8.833584</stop_lon><stop_id>5319</stop_id><stop_code></stop_code><stop_lat>45.818351</stop_lat><stop_url> </stop_url><stop_desc> </stop_desc><stop_name>VARESE FN</stop_name><location_type>0</location_type><parent_station> </parent_station></row><row id=""><stop_lon>9.580572</stop_lon><stop_id>2920</stop_id><stop_code></stop_code><stop_lat>45.521857</stop_lat><stop_url> </stop_url><stop_desc> </stop_desc><stop_name>TREVIGLIO OVEST</stop_name><location_type>0</location_type><parent_station> </parent_station></row><row id=""><stop_lon>8.851341</stop_lon><stop_id>5264</stop_id><stop_code></stop_code><stop_lat>45.606114</stop_lat><stop_url> </stop_url><stop_desc> </stop_desc><stop_name>BUSTO ARSIZIO FN</stop_name><location_type>0</location_type><parent_station> </parent_station></row><row id=""><stop_lon>8.673939</stop_lon><stop_id>5326</stop_id><stop_code></stop_code><stop_lat>45.877756</stop_lat><stop_url> </stop_url><stop_desc> </stop_desc><stop_name>GEMONIO</stop_name><location_type>0</location_type><parent_station> </parent_station></row><row id=""><stop_lon>9.53617</stop_lon><stop_id>2836</stop_id><stop_code></stop_code><stop_lat>45.688472</stop_lat><stop_url> </stop_url><stop_desc> </stop_desc><stop_name>TERNO</stop_name><location_type>0</location_type><parent_station> </parent_station></row><row id=""><stop_lon>9.057898</stop_lon><stop_id>5063</stop_id><stop_code></stop_code><stop_lat>45.5982</stop_lat><stop_url> </stop_url><stop_desc> </stop_desc><stop_name>CARONNO PERTUSELLA</stop_name><location_type>0</location_type><parent_station> </parent_station></row><row id=""><stop_lon>10.388281</stop_lon><stop_id>2336</stop_id><stop_code></stop_code><stop_lat>45.257387</stop_lat><stop_url> </stop_url><stop_desc> </stop_desc><stop_name>REMEDELLO SOTTO</stop_name><location_type>0</location_type><parent_station> </parent_station></row><row id=""><stop_lon>8.929929</stop_lon><stop_id>2228</stop_id><stop_code></stop_code><stop_lat>44.961932</stop_lat><stop_url> </stop_url><stop_desc> </stop_desc><stop_name>PONTECURONE</stop_name><location_type>0</location_type><parent_station> </parent_station></row><row id=""><stop_lon>8.872147</stop_lon><stop_id>2934</stop_id><stop_code></stop_code><stop_lat>45.2119</stop_lat><stop_url> </stop_url><stop_desc> </stop_desc><stop_name>TROMELLO</stop_name><location_type>0</location_type><parent_station> </parent_station></row><row id=""><stop_lon>9.872873</stop_lon><stop_id>2760</stop_id><stop_code></stop_code><stop_lat>46.167276</stop_lat><stop_url> </stop_url><stop_desc> </stop_desc><stop_name>SONDRIO</stop_name><location_type>0</location_type><parent_station> </parent_station></row><row id=""><stop_lon>8.935905</stop_lon><stop_id>5312</stop_id><stop_code></stop_code><stop_lat>45.689924</stop_lat><stop_url> </stop_url><stop_desc> </stop_desc><stop_name>LOCATE VARESINO-CARBONATE</stop_name><location_type>0</location_type><parent_station> </parent_station></row><row id=""><stop_lon>10.573236</stop_lon><stop_id>2557</stop_id><stop_code></stop_code><stop_lat>45.122458</stop_lat><stop_url> </stop_url><stop_desc> </stop_desc><stop_name>S.MICHELE IN BOSCO</stop_name><location_type>0</location_type><parent_station> </parent_station></row><row id=""><stop_lon>9.42237</stop_lon><stop_id>2632</stop_id><stop_code></stop_code><stop_lat>46.247775</stop_lat><stop_url> </stop_url><stop_desc> </stop_desc><stop_name>SAMOLACO</stop_name><location_type>0</location_type><parent_station> </parent_station></row><row id=""><stop_lon>8.824798</stop_lon><stop_id>1413</stop_id><stop_code></stop_code><stop_lat>45.778664</stop_lat><stop_url> </stop_url><stop_desc> </stop_desc><stop_name>GAZZADA SCHIANNO MORAZZONE</stop_name><location_type>0</location_type><parent_station> </parent_station></row><row id=""><stop_lon>9.393426</stop_lon><stop_id>1550</stop_id><stop_code></stop_code><stop_lat>45.856192</stop_lat><stop_url> </stop_url><stop_desc> </stop_desc><stop_name>LECCO</stop_name><location_type>0</location_type><parent_station> </parent_station></row><row id=""><stop_lon>8.743964</stop_lon><stop_id>948</stop_id><stop_code></stop_code><stop_lat>45.674963</stop_lat><stop_url> </stop_url><stop_desc> </stop_desc><stop_name>CASORATE SEMPIONE</stop_name><location_type>0</location_type><parent_station> </parent_station></row><row id=""><stop_lon>9.261689</stop_lon><stop_id>407</stop_id><stop_code></stop_code><stop_lat>45.172521</stop_lat><stop_url> </stop_url><stop_desc> </stop_desc><stop_name>ALBUZZANO</stop_name><location_type>0</location_type><parent_station> </parent_station></row><row id=""><stop_lon>9.168405</stop_lon><stop_id>5087</stop_id><stop_code></stop_code><stop_lat>45.675878</stop_lat><stop_url> </stop_url><stop_desc> </stop_desc><stop_name>CABIATE</stop_name><location_type>0</location_type><parent_station> </parent_station></row><row id=""><stop_lon>9.30505</stop_lon><stop_id>3101</stop_id><stop_code></stop_code><stop_lat>45.60332</stop_lat><stop_url> </stop_url><stop_desc> </stop_desc><stop_name>VILLASANTA</stop_name><location_type>0</location_type><parent_station> </parent_station></row><row id=""><stop_lon>9.600581</stop_lon><stop_id>2808</stop_id><stop_code></stop_code><stop_lat>46.139922</stop_lat><stop_url> </stop_url><stop_desc> </stop_desc><stop_name>TALAMONA</stop_name><location_type>0</location_type><parent_station> </parent_station></row><row id=""><stop_lon>9.122922</stop_lon><stop_id>5058</stop_id><stop_code></stop_code><stop_lat>45.542741</stop_lat><stop_url> </stop_url><stop_desc> </stop_desc><stop_name>BOLLATE CENTRO</stop_name><location_type>0</location_type><parent_station> </parent_station></row><row id=""><stop_lon>10.13249</stop_lon><stop_id>1634</stop_id><stop_code></stop_code><stop_lat>45.356991</stop_lat><stop_url> </stop_url><stop_desc> </stop_desc><stop_name>MANERBIO</stop_name><location_type>0</location_type><parent_station> </parent_station></row><row id=""><stop_lon>8.66994</stop_lon><stop_id>2655</stop_id><stop_code></stop_code><stop_lat>45.111797</stop_lat><stop_url> </stop_url><stop_desc> </stop_desc><stop_name>SARTIRANA</stop_name><location_type>0</location_type><parent_station> </parent_station></row><row id=""><stop_lon>9.724617</stop_lon><stop_id>2697</stop_id><stop_code></stop_code><stop_lat>45.683237</stop_lat><stop_url> </stop_url><stop_desc> </stop_desc><stop_name>SERIATE</stop_name><location_type>0</location_type><parent_station> </parent_station></row><row id=""><stop_lon>8.926408</stop_lon><stop_id>858</stop_id><stop_code></stop_code><stop_lat>45.569344</stop_lat><stop_url> </stop_url><stop_desc> </stop_desc><stop_name>CANEGRATE</stop_name><location_type>0</location_type><parent_station> </parent_station></row><row id=""><stop_lon>9.419392</stop_lon><stop_id>1690</stop_id><stop_code></stop_code><stop_lat>45.502207</stop_lat><stop_url> </stop_url><stop_desc> </stop_desc><stop_name>MELZO</stop_name><location_type>0</location_type><parent_station> </parent_station></row><row id=""><stop_lon>9.638444</stop_lon><stop_id>3183</stop_id><stop_code></stop_code><stop_lat>45.688194</stop_lat><stop_url> </stop_url><stop_desc> </stop_desc><stop_name>BERGAMO OSPEDALE</stop_name><location_type>0</location_type><parent_station> </parent_station></row><row id=""><stop_lon>9.115112</stop_lon><stop_id>1037</stop_id><stop_code></stop_code><stop_lat>45.144716</stop_lat><stop_url> </stop_url><stop_desc> </stop_desc><stop_name>CAVA CARBONARA</stop_name><location_type>0</location_type><parent_station> </parent_station></row><row id=""><stop_lon>9.272965</stop_lon><stop_id>1841</stop_id><stop_code></stop_code><stop_lat>45.57817</stop_lat><stop_url> </stop_url><stop_desc> </stop_desc><stop_name>MONZA</stop_name><location_type>0</location_type><parent_station> </parent_station></row><row id=""><stop_lon>9.210148</stop_lon><stop_id>5090</stop_id><stop_code></stop_code><stop_lat>45.718338</stop_lat><stop_url> </stop_url><stop_desc> </stop_desc><stop_name>AROSIO</stop_name><location_type>0</location_type><parent_station> </parent_station></row><row id=""><stop_lon>9.167013</stop_lon><stop_id>5052</stop_id><stop_code></stop_code><stop_lat>45.639139</stop_lat><stop_url> </stop_url><stop_desc> </stop_desc><stop_name>SEVESO-BARUCCANA</stop_name><location_type>0</location_type><parent_station> </parent_station></row><row id=""><stop_lon>8.663288</stop_lon><stop_id>636</stop_id><stop_code></stop_code><stop_lat>45.842271</stop_lat><stop_url> </stop_url><stop_desc> </stop_desc><stop_name>BESOZZO</stop_name><location_type>0</location_type><parent_station> </parent_station></row><row id=""><stop_lon>9.962431</stop_lon><stop_id>926</stop_id><stop_code></stop_code><stop_lat>45.255431</stop_lat><stop_url> </stop_url><stop_desc> </stop_desc><stop_name>CASALBUTTANO</stop_name><location_type>0</location_type><parent_station> </parent_station></row><row id=""><stop_lon>9.606345</stop_lon><stop_id>2564</stop_id><stop_code></stop_code><stop_lat>45.058930</stop_lat><stop_url> </stop_url><stop_desc> </stop_desc><stop_name>S.NICOLO</stop_name><location_type>0</location_type><parent_station> </parent_station></row><row id=""><stop_lon>8.607509</stop_lon><stop_id>193</stop_id><stop_code></stop_code><stop_lat>44.908851</stop_lat><stop_url> </stop_url><stop_desc> </stop_desc><stop_name>ALESSANDRIA</stop_name><location_type>0</location_type><parent_station> </parent_station></row><row id=""><stop_lon>8.978597</stop_lon><stop_id>85033</stop_id><stop_code></stop_code><stop_lat>45.869163</stop_lat><stop_url> </stop_url><stop_desc> </stop_desc><stop_name>MENDRISIO</stop_name><location_type>0</location_type><parent_station> </parent_station></row><row id=""><stop_lon>8.68583</stop_lon><stop_id>2976</stop_id><stop_code></stop_code><stop_lat>45.150537</stop_lat><stop_url> </stop_url><stop_desc> </stop_desc><stop_name>VALLE LOMELLINA</stop_name><location_type>0</location_type><parent_station> </parent_station></row><row id=""><stop_lon>10.362621</stop_lon><stop_id>2894</stop_id><stop_code></stop_code><stop_lat>44.885794</stop_lat><stop_url> </stop_url><stop_desc> </stop_desc><stop_name>TORRILE S.POLO</stop_name><location_type>0</location_type><parent_station> </parent_station></row><row id=""><stop_lon>8.777108</stop_lon><stop_id>5321</stop_id><stop_code></stop_code><stop_lat>45.826583</stop_lat><stop_url> </stop_url><stop_desc> </stop_desc><stop_name>MOROSOLO-CASCIAGO</stop_name><location_type>0</location_type><parent_station> </parent_station></row><row id=""><stop_lon>9.187875</stop_lon><stop_id>1715</stop_id><stop_code></stop_code><stop_lat>45.484462</stop_lat><stop_url> </stop_url><stop_desc> </stop_desc><stop_name>MILANO PORTA GARIBALDI</stop_name><location_type>0</location_type><parent_station> </parent_station></row><row id=""><stop_lon>8.610899</stop_lon><stop_id>2981</stop_id><stop_code></stop_code><stop_lat>44.972738</stop_lat><stop_url> </stop_url><stop_desc> </stop_desc><stop_name>VALMADONNA</stop_name><location_type>0</location_type><parent_station> </parent_station></row><row id=""><stop_lon>9.627939</stop_lon><stop_id>3595</stop_id><stop_code></stop_code><stop_lat>45.623868</stop_lat><stop_url> </stop_url><stop_desc> </stop_desc><stop_name>LEVATE</stop_name><location_type>0</location_type><parent_station> </parent_station></row><row id=""><stop_lon>9.808626</stop_lon><stop_id>1808</stop_id><stop_code></stop_code><stop_lat>45.670266</stop_lat><stop_url> </stop_url><stop_desc> </stop_desc><stop_name>MONTELLO GORLAGO</stop_name><location_type>0</location_type><parent_station> </parent_station></row><row id=""><stop_lon>9.588608</stop_lon><stop_id>2919</stop_id><stop_code></stop_code><stop_lat>45.515234</stop_lat><stop_url> </stop_url><stop_desc> </stop_desc><stop_name>TREVIGLIO</stop_name><location_type>0</location_type><parent_station> </parent_station></row><row id=""><stop_lon>8.880681</stop_lon><stop_id>1618</stop_id><stop_code></stop_code><stop_lat>45.467998</stop_lat><stop_url> </stop_url><stop_desc> </stop_desc><stop_name>MAGENTA</stop_name><location_type>0</location_type><parent_station> </parent_station></row><row id=""><stop_lon>9.090977</stop_lon><stop_id>5060</stop_id><stop_code></stop_code><stop_lat>45.571089</stop_lat><stop_url> </stop_url><stop_desc> </stop_desc><stop_name>GARBAGNATE PARCO GROANE</stop_name><location_type>0</location_type><parent_station> </parent_station></row><row id=""><stop_lon>8.946664</stop_lon><stop_id>5262</stop_id><stop_code></stop_code><stop_lat>45.622296</stop_lat><stop_url> </stop_url><stop_desc> </stop_desc><stop_name>RESCALDINA</stop_name><location_type>0</location_type><parent_station> </parent_station></row><row id=""><stop_lon>10.031853</stop_lon><stop_id>1940</stop_id><stop_code></stop_code><stop_lat>45.231386</stop_lat><stop_url> </stop_url><stop_desc> </stop_desc><stop_name>OLMENETA</stop_name><location_type>0</location_type><parent_station> </parent_station></row><row id=""><stop_lon>9.145729</stop_lon><stop_id>5056</stop_id><stop_code></stop_code><stop_lat>45.519111</stop_lat><stop_url> </stop_url><stop_desc> </stop_desc><stop_name>MILANO QUARTO OGGIARO</stop_name><location_type>0</location_type><parent_station> </parent_station></row><row id=""><stop_lon>8.91871</stop_lon><stop_id>5313</stop_id><stop_code></stop_code><stop_lat>45.701879</stop_lat><stop_url> </stop_url><stop_desc> </stop_desc><stop_name>TRADATE-ABBIATE-GUAZZONE</stop_name><location_type>0</location_type><parent_station> </parent_station></row><row id=""><stop_lon>9.112022</stop_lon><stop_id>5059</stop_id><stop_code></stop_code><stop_lat>45.552694</stop_lat><stop_url> </stop_url><stop_desc> </stop_desc><stop_name>BOLLATE NORD</stop_name><location_type>0</location_type><parent_station> </parent_station></row><row id=""><stop_lon>9.258878</stop_lon><stop_id>746</stop_id><stop_code></stop_code><stop_lat>45.066163</stop_lat><stop_url> </stop_url><stop_desc> </stop_desc><stop_name>BRONI</stop_name><location_type>0</location_type><parent_station> </parent_station></row><row id=""><stop_lon>10.758470</stop_lon><stop_id>1011</stop_id><stop_code></stop_code><stop_lat>45.431373</stop_lat><stop_url> </stop_url><stop_desc> </stop_desc><stop_name>CASTELNUOVO DEL GARDA</stop_name><location_type>0</location_type><parent_station> </parent_station></row><row id=""><stop_lon>9.44622</stop_lon><stop_id>1919</stop_id><stop_code></stop_code><stop_lat>46.216651</stop_lat><stop_url> </stop_url><stop_desc> </stop_desc><stop_name>NOVATE-MEZZOLA</stop_name><location_type>0</location_type><parent_station> </parent_station></row><row id=""><stop_lon>9.926475</stop_lon><stop_id>1085</stop_id><stop_code></stop_code><stop_lat>45.539889</stop_lat><stop_url> </stop_url><stop_desc> </stop_desc><stop_name>CHIARI</stop_name><location_type>0</location_type><parent_station> </parent_station></row><row id=""><stop_lon>9.856689</stop_lon><stop_id>2763</stop_id><stop_code></stop_code><stop_lat>45.283161</stop_lat><stop_url> </stop_url><stop_desc> </stop_desc><stop_name>SORESINA</stop_name><location_type>0</location_type><parent_station> </parent_station></row><row id=""><stop_lon>9.115174</stop_lon><stop_id>1039</stop_id><stop_code></stop_code><stop_lat>45.144775</stop_lat><stop_url> </stop_url><stop_desc> </stop_desc><stop_name>S.MARTINO CAVA</stop_name><location_type>0</location_type><parent_station> </parent_station></row><row id=""><stop_lon>9.584512</stop_lon><stop_id>2223</stop_id><stop_code></stop_code><stop_lat>45.698981</stop_lat><stop_url> </stop_url><stop_desc> </stop_desc><stop_name>PONTE S.PIETRO</stop_name><location_type>0</location_type><parent_station> </parent_station></row><row id=""><stop_lon>9.368071</stop_lon><stop_id>2982</stop_id><stop_code></stop_code><stop_lat>45.846499</stop_lat><stop_url> </stop_url><stop_desc> </stop_desc><stop_name>VALMADRERA</stop_name><location_type>0</location_type><parent_station> </parent_station></row><row id=""><stop_lon>9.269382</stop_lon><stop_id>5098</stop_id><stop_code></stop_code><stop_lat>45.854957</stop_lat><stop_url> </stop_url><stop_desc> </stop_desc><stop_name>CANZO-ASSO</stop_name><location_type>0</location_type><parent_station> </parent_station></row><row id=""><stop_lon>8.977496</stop_lon><stop_id>5310</stop_id><stop_code></stop_code><stop_lat>45.660982</stop_lat><stop_url> </stop_url><stop_desc> </stop_desc><stop_name>CISLAGO</stop_name><location_type>0</location_type><parent_station> </parent_station></row><row id=""><stop_lon>9.238708</stop_lon><stop_id>1720</stop_id><stop_code></stop_code><stop_lat>45.433474</stop_lat><stop_url> </stop_url><stop_desc> </stop_desc><stop_name>MILANO ROGOREDO</stop_name><location_type>0</location_type><parent_station> </parent_station></row><row id=""><stop_lon>9.314002</stop_lon><stop_id>1934</stop_id><stop_code></stop_code><stop_lat>45.938003</stop_lat><stop_url> </stop_url><stop_desc> </stop_desc><stop_name>OLCIO</stop_name><location_type>0</location_type><parent_station> </parent_station></row><row id=""><stop_lon>9.640020</stop_lon><stop_id>883</stop_id><stop_code></stop_code><stop_lat>45.444050</stop_lat><stop_url> </stop_url><stop_desc> </stop_desc><stop_name>CAPRALBA</stop_name><location_type>0</location_type><parent_station> </parent_station></row><row id=""><stop_lon>9.28636</stop_lon><stop_id>2520</stop_id><stop_code></stop_code><stop_lat>45.391458</stop_lat><stop_url> </stop_url><stop_desc> </stop_desc><stop_name>S.GIULIANO MILANESE</stop_name><location_type>0</location_type><parent_station> </parent_station></row><row id=""><stop_lon>9.352756</stop_lon><stop_id>1119</stop_id><stop_code></stop_code><stop_lat>45.831272</stop_lat><stop_url> </stop_url><stop_desc> </stop_desc><stop_name>CIVATE</stop_name><location_type>0</location_type><parent_station> </parent_station></row><row id=""><stop_lon>9.491163</stop_lon><stop_id>2651</stop_id><stop_code></stop_code><stop_lat>45.062941</stop_lat><stop_url> </stop_url><stop_desc> </stop_desc><stop_name>SARMATO</stop_name><location_type>0</location_type><parent_station> </parent_station></row><row id=""><stop_lon>9.283168</stop_lon><stop_id>634</stop_id><stop_code></stop_code><stop_lat>45.702725</stop_lat><stop_url> </stop_url><stop_desc> </stop_desc><stop_name>BESANA</stop_name><location_type>0</location_type><parent_station> </parent_station></row><row id=""><stop_lon>9.132299</stop_lon><stop_id>5057</stop_id><stop_code></stop_code><stop_lat>45.533067</stop_lat><stop_url> </stop_url><stop_desc> </stop_desc><stop_name>NOVATE MILANESE</stop_name><location_type>0</location_type><parent_station> </parent_station></row><row id=""><stop_lon>9.030231</stop_lon><stop_id>2611</stop_id><stop_code></stop_code><stop_lat>45.133788</stop_lat><stop_url> </stop_url><stop_desc> </stop_desc><stop_name>SAIRANO ZINASCO</stop_name><location_type>0</location_type><parent_station> </parent_station></row><row id=""><stop_lon>9.198866</stop_lon><stop_id>5089</stop_id><stop_code></stop_code><stop_lat>45.705868</stop_lat><stop_url> </stop_url><stop_desc> </stop_desc><stop_name>CARUGO-GIUSSANO</stop_name><location_type>0</location_type><parent_station> </parent_station></row><row id=""><stop_lon>9.404874</stop_lon><stop_id>1089</stop_id><stop_code></stop_code><stop_lat>46.319667</stop_lat><stop_url> </stop_url><stop_desc> </stop_desc><stop_name>CHIAVENNA</stop_name><location_type>0</location_type><parent_station> </parent_station></row><row id=""><stop_lon>10.032902</stop_lon><stop_id>5370</stop_id><stop_code></stop_code><stop_lat>45.590413</stop_lat><stop_url> </stop_url><stop_desc> </stop_desc><stop_name>BORNATO-CALINO</stop_name><location_type>0</location_type><parent_station> </parent_station></row><row id=""><stop_lon>10.088282</stop_lon><stop_id>5362</stop_id><stop_code></stop_code><stop_lat>45.7873</stop_lat><stop_url> </stop_url><stop_desc> </stop_desc><stop_name>TOLINE</stop_name><location_type>0</location_type><parent_station> </parent_station></row><row id=""><stop_lon>9.843294</stop_lon><stop_id>799</stop_id><stop_code></stop_code><stop_lat>45.533326</stop_lat><stop_url> </stop_url><stop_desc> </stop_desc><stop_name>CALCIO</stop_name><location_type>0</location_type><parent_station> </parent_station></row><row id=""><stop_lon>9.637899</stop_lon><stop_id>892</stop_id><stop_code></stop_code><stop_lat>45.49128</stop_lat><stop_url> </stop_url><stop_desc> </stop_desc><stop_name>CARAVAGGIO</stop_name><location_type>0</location_type><parent_station> </parent_station></row><row id=""><stop_lon>8.696135</stop_lon><stop_id>2906</stop_id><stop_code></stop_code><stop_lat>45.80974</stop_lat><stop_url> </stop_url><stop_desc> </stop_desc><stop_name>TRAVEDONA BIANDRONNO</stop_name><location_type>0</location_type><parent_station> </parent_station></row><row id=""><stop_lon>8.714591</stop_lon><stop_id>406</stop_id><stop_code></stop_code><stop_lat>45.29802</stop_lat><stop_url> </stop_url><stop_desc> </stop_desc><stop_name>ALBONESE</stop_name><location_type>0</location_type><parent_station> </parent_station></row><row id=""><stop_lon>9.221671</stop_lon><stop_id>1583</stop_id><stop_code></stop_code><stop_lat>45.359933</stop_lat><stop_url> </stop_url><stop_desc> </stop_desc><stop_name>LOCATE TRIULZI</stop_name><location_type>0</location_type><parent_station> </parent_station></row><row id=""><stop_lon>9.040005</stop_lon><stop_id>5339</stop_id><stop_code></stop_code><stop_lat>45.711146</stop_lat><stop_url> </stop_url><stop_desc> </stop_desc><stop_name>CASLINO AL PIANO</stop_name><location_type>0</location_type><parent_station> </parent_station></row><row id=""><stop_lon>9.694088</stop_lon><stop_id>1201</stop_id><stop_code></stop_code><stop_lat>45.366693</stop_lat><stop_url> </stop_url><stop_desc> </stop_desc><stop_name>CREMA</stop_name><location_type>0</location_type><parent_station> </parent_station></row><row id=""><stop_lon>10.982471</stop_lon><stop_id>3025</stop_id><stop_code></stop_code><stop_lat>45.428926</stop_lat><stop_url> </stop_url><stop_desc> </stop_desc><stop_name>VERONA PORTA NUOVA</stop_name><location_type>0</location_type><parent_station> </parent_station></row><row id=""><stop_lon>9.091337</stop_lon><stop_id>780</stop_id><stop_code></stop_code><stop_lat>45.430872</stop_lat><stop_url> </stop_url><stop_desc> </stop_desc><stop_name>CESANO BOSCONE</stop_name><location_type>0</location_type><parent_station> </parent_station></row><row id=""><stop_lon>10.370235</stop_lon><stop_id>2112</stop_id><stop_code></stop_code><stop_lat>45.127612</stop_lat><stop_url> </stop_url><stop_desc> </stop_desc><stop_name>PIADENA</stop_name><location_type>0</location_type><parent_station> </parent_station></row><row id=""><stop_lon>9.706193</stop_lon><stop_id>2111</stop_id><stop_code></stop_code><stop_lat>45.051976</stop_lat><stop_url> </stop_url><stop_desc> </stop_desc><stop_name>PIACENZA</stop_name><location_type>0</location_type><parent_station> </parent_station></row><row id=""><stop_lon>8.761251</stop_lon><stop_id>635</stop_id><stop_code></stop_code><stop_lat>45.695494</stop_lat><stop_url> </stop_url><stop_desc> </stop_desc><stop_name>BESNATE</stop_name><location_type>0</location_type><parent_station> </parent_station></row><row id=""><stop_lon>10.363339</stop_lon><stop_id>3114</stop_id><stop_code></stop_code><stop_lat>45.315376</stop_lat><stop_url> </stop_url><stop_desc> </stop_desc><stop_name>VISANO</stop_name><location_type>0</location_type><parent_station> </parent_station></row><row id=""><stop_lon>10.382871</stop_lon><stop_id>1153</stop_id><stop_code></stop_code><stop_lat>44.927985</stop_lat><stop_url> </stop_url><stop_desc> </stop_desc><stop_name>COLORNO</stop_name><location_type>0</location_type><parent_station> </parent_station></row><row id=""><stop_lon>8.798429</stop_lon><stop_id>1393</stop_id><stop_code></stop_code><stop_lat>45.659576</stop_lat><stop_url> </stop_url><stop_desc> </stop_desc><stop_name>GALLARATE</stop_name><location_type>0</location_type><parent_station> </parent_station></row><row id=""><stop_lon>10.050068</stop_lon><stop_id>5154</stop_id><stop_code></stop_code><stop_lat>45.656582</stop_lat><stop_url> </stop_url><stop_desc> </stop_desc><stop_name>ISEO</stop_name><location_type>0</location_type><parent_station> </parent_station></row><row id=""><stop_lon>8.712925</stop_lon><stop_id>2757</stop_id><stop_code></stop_code><stop_lat>45.686358</stop_lat><stop_url> </stop_url><stop_desc> </stop_desc><stop_name>SOMMA LOMBARDO</stop_name><location_type>0</location_type><parent_station> </parent_station></row><row id=""><stop_lon>10.113156</stop_lon><stop_id>641</stop_id><stop_code></stop_code><stop_lat>46.179362</stop_lat><stop_url> </stop_url><stop_desc> </stop_desc><stop_name>BIANZONE</stop_name><location_type>0</location_type><parent_station> </parent_station></row><row id=""><stop_lon>9.1075</stop_lon><stop_id>899</stop_id><stop_code></stop_code><stop_lat>45.697156</stop_lat><stop_url> </stop_url><stop_desc> </stop_desc><stop_name>CARIMATE</stop_name><location_type>0</location_type><parent_station> </parent_station></row><row id=""><stop_lon>9.031545</stop_lon><stop_id>1087</stop_id><stop_code></stop_code><stop_lat>45.83226</stop_lat><stop_url> </stop_url><stop_desc> </stop_desc><stop_name>CHIASSO</stop_name><location_type>0</location_type><parent_station> </parent_station></row><row id=""><stop_lon>9.082147</stop_lon><stop_id>1208</stop_id><stop_code></stop_code><stop_lat>45.740787</stop_lat><stop_url> </stop_url><stop_desc> </stop_desc><stop_name>CUCCIAGO</stop_name><location_type>0</location_type><parent_station> </parent_station></row><row id=""><stop_lon>9.329494</stop_lon><stop_id>2147</stop_id><stop_code></stop_code><stop_lat>45.486115</stop_lat><stop_url> </stop_url><stop_desc> </stop_desc><stop_name>PIOLTELLO LIMITO</stop_name><location_type>0</location_type><parent_station> </parent_station></row><row id=""><stop_lon>8.996529</stop_lon><stop_id>381</stop_id><stop_code></stop_code><stop_lat>45.507806</stop_lat><stop_url> </stop_url><stop_desc> </stop_desc><stop_name>PREGNANA MILANESE</stop_name><location_type>0</location_type><parent_station> </parent_station></row><row id=""><stop_lon>9.888747</stop_lon><stop_id>1040</stop_id><stop_code></stop_code><stop_lat>45.171834</stop_lat><stop_url> </stop_url><stop_desc> </stop_desc><stop_name>CAVA TIGOZZI</stop_name><location_type>0</location_type><parent_station> </parent_station></row><row id=""><stop_lon>9.140252</stop_lon><stop_id>5046</stop_id><stop_code></stop_code><stop_lat>45.648387</stop_lat><stop_url> </stop_url><stop_desc> </stop_desc><stop_name>SEVESO</stop_name><location_type>0</location_type><parent_station> </parent_station></row><row id=""><stop_lon>9.159492</stop_lon><stop_id>1707</stop_id><stop_code></stop_code><stop_lat>45.5027</stop_lat><stop_url> </stop_url><stop_desc> </stop_desc><stop_name>MILANO BOVISA FNM</stop_name><location_type>0</location_type><parent_station> </parent_station></row><row id=""><stop_lon>8.706198</stop_lon><stop_id>5324</stop_id><stop_code></stop_code><stop_lat>45.851219</stop_lat><stop_url> </stop_url><stop_desc> </stop_desc><stop_name>GAVIRATE VERBANO</stop_name><location_type>0</location_type><parent_station> </parent_station></row><row id=""><stop_lon>9.674983</stop_lon><stop_id>632</stop_id><stop_code></stop_code><stop_lat>45.690458</stop_lat><stop_url> </stop_url><stop_desc> </stop_desc><stop_name>BERGAMO</stop_name><location_type>0</location_type><parent_station> </parent_station></row><row id=""><stop_lon>9.76772</stop_lon><stop_id>997</stop_id><stop_code></stop_code><stop_lat>45.301767</stop_lat><stop_url> </stop_url><stop_desc> </stop_desc><stop_name>CASTELLEONE</stop_name><location_type>0</location_type><parent_station> </parent_station></row><row id=""><stop_lon>8.996317</stop_lon><stop_id>2987</stop_id><stop_code></stop_code><stop_lat>45.525021</stop_lat><stop_url> </stop_url><stop_desc> </stop_desc><stop_name>VANZAGO POGLIANO</stop_name><location_type>0</location_type><parent_station> </parent_station></row><row id=""><stop_lon>9.847004</stop_lon><stop_id>1099</stop_id><stop_code></stop_code><stop_lat>45.650506</stop_lat><stop_url> </stop_url><stop_desc> </stop_desc><stop_name>CHIUDUNO</stop_name><location_type>0</location_type><parent_station> </parent_station></row><row id=""><stop_lon>9.977874</stop_lon><stop_id>1128</stop_id><stop_code></stop_code><stop_lat>45.561114</stop_lat><stop_url> </stop_url><stop_desc> </stop_desc><stop_name>COCCAGLIO</stop_name><location_type>0</location_type><parent_station> </parent_station></row><row id=""><stop_lon>9.39772</stop_lon><stop_id>2275</stop_id><stop_code></stop_code><stop_lat>46.307727</stop_lat><stop_url> </stop_url><stop_desc> </stop_desc><stop_name>PRATA CAMPORTACCIO</stop_name><location_type>0</location_type><parent_station> </parent_station></row><row id=""><stop_lon>9.298296</stop_lon><stop_id>642</stop_id><stop_code></stop_code><stop_lat>45.632282</stop_lat><stop_url> </stop_url><stop_desc> </stop_desc><stop_name>BIASSONO-LESMO PARCO</stop_name><location_type>0</location_type><parent_station> </parent_station></row><row id=""><stop_lon>9.644929</stop_lon><stop_id>3596</stop_id><stop_code></stop_code><stop_lat>45.658684</stop_lat><stop_url> </stop_url><stop_desc> </stop_desc><stop_name>STEZZANO</stop_name><location_type>0</location_type><parent_station> </parent_station></row><row id=""><stop_lon>9.252272</stop_lon><stop_id>891</stop_id><stop_code></stop_code><stop_lat>45.676423</stop_lat><stop_url> </stop_url><stop_desc> </stop_desc><stop_name>CARATE-CALO'</stop_name><location_type>0</location_type><parent_station> </parent_station></row><row id=""><stop_lon>8.799751</stop_lon><stop_id>1402</stop_id><stop_code></stop_code><stop_lat>45.235317</stop_lat><stop_url> </stop_url><stop_desc> </stop_desc><stop_name>GAMBOLO'-REMONDO'</stop_name><location_type>0</location_type><parent_station> </parent_station></row><row id=""><stop_lon>9.243423</stop_lon><stop_id>1698</stop_id><stop_code></stop_code><stop_lat>45.780321</stop_lat><stop_url> </stop_url><stop_desc> </stop_desc><stop_name>MERONE</stop_name><location_type>0</location_type><parent_station> </parent_station></row><row id=""><stop_lon>8.72024</stop_lon><stop_id>5276</stop_id><stop_code></stop_code><stop_lat>45.650219</stop_lat><stop_url> </stop_url><stop_desc> </stop_desc><stop_name>MALPENSA AEROPORTO T.2</stop_name><location_type>0</location_type><parent_station> </parent_station></row><row id=""><stop_lon>9.202903</stop_lon><stop_id>2696</stop_id><stop_code></stop_code><stop_lat>45.646169</stop_lat><stop_url> </stop_url><stop_desc> </stop_desc><stop_name>SEREGNO</stop_name><location_type>0</location_type><parent_station> </parent_station></row><row id=""><stop_lon>9.270296</stop_lon><stop_id>5097</stop_id><stop_code></stop_code><stop_lat>45.849063</stop_lat><stop_url> </stop_url><stop_desc> </stop_desc><stop_name>CANZO</stop_name><location_type>0</location_type><parent_station> </parent_station></row><row id=""><stop_lon>9.23675</stop_lon><stop_id>1712</stop_id><stop_code></stop_code><stop_lat>45.484846</stop_lat><stop_url> </stop_url><stop_desc> </stop_desc><stop_name>MILANO LAMBRATE</stop_name><location_type>0</location_type><parent_station> </parent_station></row><row id=""><stop_lon>8.66085</stop_lon><stop_id>2889</stop_id><stop_code></stop_code><stop_lat>45.060436</stop_lat><stop_url> </stop_url><stop_desc> </stop_desc><stop_name>TORREBERETTI</stop_name><location_type>0</location_type><parent_station> </parent_station></row><row id=""><stop_lon>9.279858</stop_lon><stop_id>2337</stop_id><stop_code></stop_code><stop_lat>45.72845</stop_lat><stop_url> </stop_url><stop_desc> </stop_desc><stop_name>RENATE-VEDUGGIO</stop_name><location_type>0</location_type><parent_station> </parent_station></row><row id=""><stop_lon>9.270465</stop_lon><stop_id>710</stop_id><stop_code></stop_code><stop_lat>45.404507</stop_lat><stop_url> </stop_url><stop_desc> </stop_desc><stop_name>BORGOLOMBARDO</stop_name><location_type>0</location_type><parent_station> </parent_station></row><row id=""><stop_lon>9.198314</stop_lon><stop_id>1719</stop_id><stop_code></stop_code><stop_lat>45.480419</stop_lat><stop_url> </stop_url><stop_desc> </stop_desc><stop_name>MILANO REPUBBLICA</stop_name><location_type>0</location_type><parent_station> </parent_station></row><row id=""><stop_lon>9.186416</stop_lon><stop_id>1714</stop_id><stop_code></stop_code><stop_lat>45.485064</stop_lat><stop_url> </stop_url><stop_desc> </stop_desc><stop_name>MILANO PORTA GARIBALDI SOTTERRANEA</stop_name><location_type>0</location_type><parent_station> </parent_station></row><row id=""><stop_lon>9.790787</stop_lon><stop_id>2211</stop_id><stop_code></stop_code><stop_lat>45.184449</stop_lat><stop_url> </stop_url><stop_desc> </stop_desc><stop_name>PONTE D'ADDA</stop_name><location_type>0</location_type><parent_station> </parent_station></row><row id=""><stop_lon>9.205604</stop_lon><stop_id>588</stop_id><stop_code></stop_code><stop_lat>45.072261</stop_lat><stop_url> </stop_url><stop_desc> </stop_desc><stop_name>BARBIANELLO</stop_name><location_type>0</location_type><parent_station> </parent_station></row><row id=""><stop_lon>10.027481</stop_lon><stop_id>5371</stop_id><stop_code></stop_code><stop_lat>45.57634</stop_lat><stop_url> </stop_url><stop_desc> </stop_desc><stop_name>CAZZAGO S.MARTINO</stop_name><location_type>0</location_type><parent_station> </parent_station></row><row id=""><stop_lon>8.738819</stop_lon><stop_id>5332</stop_id><stop_code></stop_code><stop_lat>45.52825</stop_lat><stop_url> </stop_url><stop_desc> </stop_desc><stop_name>TURBIGO</stop_name><location_type>0</location_type><parent_station> </parent_station></row><row id=""><stop_lon>10.348818</stop_lon><stop_id>5351</stop_id><stop_code></stop_code><stop_lat>46.053475</stop_lat><stop_url> </stop_url><stop_desc> </stop_desc><stop_name>SELLERO</stop_name><location_type>0</location_type><parent_station> </parent_station></row><row id=""><stop_lon>10.316672</stop_lon><stop_id>5348</stop_id><stop_code></stop_code><stop_lat>46.118765</stop_lat><stop_url> </stop_url><stop_desc> </stop_desc><stop_name>MALONNO</stop_name><location_type>0</location_type><parent_station> </parent_station></row><row id=""><stop_lon>10.035311</stop_lon><stop_id>5368</stop_id><stop_code></stop_code><stop_lat>45.634972</stop_lat><stop_url> </stop_url><stop_desc> </stop_desc><stop_name>PROVAGLIO-TIMOLINE</stop_name><location_type>0</location_type><parent_station> </parent_station></row><row id=""><stop_lon>10.111593</stop_lon><stop_id>5365</stop_id><stop_code></stop_code><stop_lat>45.712819</stop_lat><stop_url> </stop_url><stop_desc> </stop_desc><stop_name>SALE MARASINO</stop_name><location_type>0</location_type><parent_station> </parent_station></row><row id=""><stop_lon>10.268687</stop_lon><stop_id>5355</stop_id><stop_code></stop_code><stop_lat>45.943378</stop_lat><stop_url> </stop_url><stop_desc> </stop_desc><stop_name>CIVIDATE-MALEGNO</stop_name><location_type>0</location_type><parent_station> </parent_station></row><row id=""><stop_lon>9.321937</stop_lon><stop_id>1632</stop_id><stop_code></stop_code><stop_lat>45.915073</stop_lat><stop_url> </stop_url><stop_desc> </stop_desc><stop_name>MANDELLO DEL LARIO</stop_name><location_type>0</location_type><parent_station> </parent_station></row><row id=""><stop_lon>9.587047</stop_lon><stop_id>2686</stop_id><stop_code></stop_code><stop_lat>45.223289</stop_lat><stop_url> </stop_url><stop_desc> </stop_desc><stop_name>SECUGNAGO</stop_name><location_type>0</location_type><parent_station> </parent_station></row><row id=""><stop_lon>8.689923</stop_lon><stop_id>5325</stop_id><stop_code></stop_code><stop_lat>45.860292</stop_lat><stop_url> </stop_url><stop_desc> </stop_desc><stop_name>COCQUIO-TREVISAGO</stop_name><location_type>0</location_type><parent_station> </parent_station></row><row id=""><stop_lon>10.305803</stop_lon><stop_id>5093</stop_id><stop_code></stop_code><stop_lat>45.959015</stop_lat><stop_url> </stop_url><stop_desc> </stop_desc><stop_name>BRENO</stop_name><location_type>0</location_type><parent_station> </parent_station></row><row id=""><stop_lon>9.432369</stop_lon><stop_id>1263</stop_id><stop_code></stop_code><stop_lat>46.172736</stop_lat><stop_url> </stop_url><stop_desc> </stop_desc><stop_name>DUBINO</stop_name><location_type>0</location_type><parent_station> </parent_station></row><row id=""><stop_lon>9.055325</stop_lon><stop_id>5343</stop_id><stop_code></stop_code><stop_lat>45.781401</stop_lat><stop_url> </stop_url><stop_desc> </stop_desc><stop_name>GRANDATE-BRECCIA</stop_name><location_type>0</location_type><parent_station> </parent_station></row><row id=""><stop_lon>9.079476</stop_lon><stop_id>5344</stop_id><stop_code></stop_code><stop_lat>45.784554</stop_lat><stop_url> </stop_url><stop_desc> </stop_desc><stop_name>COMO CAMERLATA</stop_name><location_type>0</location_type><parent_station> </parent_station></row><row id=""><stop_lon>10.64738</stop_lon><stop_id>1005</stop_id><stop_code></stop_code><stop_lat>45.1474</stop_lat><stop_url> </stop_url><stop_desc> </stop_desc><stop_name>CASTELLUCCHIO</stop_name><location_type>0</location_type><parent_station> </parent_station></row><row id=""><stop_lon>8.582135</stop_lon><stop_id>1259</stop_id><stop_code></stop_code><stop_lat>45.723613</stop_lat><stop_url> </stop_url><stop_desc> </stop_desc><stop_name>DORMELLETTO</stop_name><location_type>0</location_type><parent_station> </parent_station></row><row id=""><stop_lon>9.224567</stop_lon><stop_id>5091</stop_id><stop_code></stop_code><stop_lat>45.740214</stop_lat><stop_url> </stop_url><stop_desc> </stop_desc><stop_name>INVERIGO</stop_name><location_type>0</location_type><parent_station> </parent_station></row><row id=""><stop_lon>10.001067</stop_lon><stop_id>2437</stop_id><stop_code></stop_code><stop_lat>45.552247</stop_lat><stop_url> </stop_url><stop_desc> </stop_desc><stop_name>ROVATO</stop_name><location_type>0</location_type><parent_station> </parent_station></row><row id=""><stop_lon>10.214367</stop_lon><stop_id>734</stop_id><stop_code></stop_code><stop_lat>45.532101</stop_lat><stop_url> </stop_url><stop_desc> </stop_desc><stop_name>BRESCIA</stop_name><location_type>0</location_type><parent_station> </parent_station></row><row id=""><stop_lon>9.095851</stop_lon><stop_id>401</stop_id><stop_code></stop_code><stop_lat>45.777575</stop_lat><stop_url> </stop_url><stop_desc> </stop_desc><stop_name>ALBATE-TRECALLO</stop_name><location_type>0</location_type><parent_station> </parent_station></row><row id=""><stop_lon>9.302775</stop_lon><stop_id>618</stop_id><stop_code></stop_code><stop_lat>46.039872</stop_lat><stop_url> </stop_url><stop_desc> </stop_desc><stop_name>BELLANO TARTAVALLE TERME</stop_name><location_type>0</location_type><parent_station> </parent_station></row><row id=""><stop_lon>9.422203</stop_lon><stop_id>388</stop_id><stop_code></stop_code><stop_lat>45.755298</stop_lat><stop_url> </stop_url><stop_desc> </stop_desc><stop_name>AIRUNO</stop_name><location_type>0</location_type><parent_station> </parent_station></row><row id=""><stop_lon>9.975937</stop_lon><stop_id>2218</stop_id><stop_code></stop_code><stop_lat>46.162853</stop_lat><stop_url> </stop_url><stop_desc> </stop_desc><stop_name>PONTE IN VALTELLINA</stop_name><location_type>0</location_type><parent_station> </parent_station></row><row id=""><stop_lon>8.900404</stop_lon><stop_id>2250</stop_id><stop_code></stop_code><stop_lat>45.903773</stop_lat><stop_url> </stop_url><stop_desc> </stop_desc><stop_name>PORTO CERESIO</stop_name><location_type>0</location_type><parent_station> </parent_station></row><row id=""><stop_lon>9.151075</stop_lon><stop_id>3099</stop_id><stop_code></stop_code><stop_lat>45.502241</stop_lat><stop_url> </stop_url><stop_desc> </stop_desc><stop_name>MILANO VILLAPIZZONE</stop_name><location_type>0</location_type><parent_station> </parent_station></row><row id=""><stop_lon>9.117043</stop_lon><stop_id>5050</stop_id><stop_code></stop_code><stop_lat>45.629315</stop_lat><stop_url> </stop_url><stop_desc> </stop_desc><stop_name>CERIANO LAGHETTO-GROANE</stop_name><location_type>0</location_type><parent_station> </parent_station></row><row id=""><stop_lon>10.280314</stop_lon><stop_id>1425</stop_id><stop_code></stop_code><stop_lat>45.409372</stop_lat><stop_url> </stop_url><stop_desc> </stop_desc><stop_name>GHEDI</stop_name><location_type>0</location_type><parent_station> </parent_station></row><row id=""><stop_lon>9.653603</stop_lon><stop_id>937</stop_id><stop_code></stop_code><stop_lat>45.182336</stop_lat><stop_url> </stop_url><stop_desc> </stop_desc><stop_name>CASALPUSTERLENGO</stop_name><location_type>0</location_type><parent_station> </parent_station></row><row id=""><stop_lon>9.275444</stop_lon><stop_id>947</stop_id><stop_code></stop_code><stop_lat>45.786125</stop_lat><stop_url> </stop_url><stop_desc> </stop_desc><stop_name>CASLETTO-ROGENO</stop_name><location_type>0</location_type><parent_station> </parent_station></row><row id=""><stop_lon>10.424792</stop_lon><stop_id>934</stop_id><stop_code></stop_code><stop_lat>44.992939</stop_lat><stop_url> </stop_url><stop_desc> </stop_desc><stop_name>CASALMAGGIORE</stop_name><location_type>0</location_type><parent_station> </parent_station></row><row id=""><stop_lon>9.072838</stop_lon><stop_id>400</stop_id><stop_code></stop_code><stop_lat>45.777038</stop_lat><stop_url> </stop_url><stop_desc> </stop_desc><stop_name>ALBATE CAMERLATA</stop_name><location_type>0</location_type><parent_station> </parent_station></row><row id=""><stop_lon>10.074331</stop_lon><stop_id>1974</stop_id><stop_code></stop_code><stop_lat>45.546092</stop_lat><stop_url> </stop_url><stop_desc> </stop_desc><stop_name>OSPITALETTO TRAVAGLIATO</stop_name><location_type>0</location_type><parent_station> </parent_station></row><row id=""><stop_lon>9.181411</stop_lon><stop_id>5088</stop_id><stop_code></stop_code><stop_lat>45.693589</stop_lat><stop_url> </stop_url><stop_desc> </stop_desc><stop_name>MARIANO COMENSE</stop_name><location_type>0</location_type><parent_station> </parent_station></row><row id=""><stop_lon>8.693356</stop_lon><stop_id>3018</stop_id><stop_code></stop_code><stop_lat>45.717278</stop_lat><stop_url> </stop_url><stop_desc> </stop_desc><stop_name>VERGIATE</stop_name><location_type>0</location_type><parent_station> </parent_station></row><row id=""><stop_lon>8.732141</stop_lon><stop_id>1858</stop_id><stop_code></stop_code><stop_lat>45.252204</stop_lat><stop_url> </stop_url><stop_desc> </stop_desc><stop_name>MORTARA</stop_name><location_type>0</location_type><parent_station> </parent_station></row><row id=""><stop_lon>9.402956</stop_lon><stop_id>2820</stop_id><stop_code></stop_code><stop_lat>45.326354</stop_lat><stop_url> </stop_url><stop_desc> </stop_desc><stop_name>TAVAZZANO</stop_name><location_type>0</location_type><parent_station> </parent_station></row><row id=""><stop_lon>8.663181</stop_lon><stop_id>801</stop_id><stop_code></stop_code><stop_lat>45.945607</stop_lat><stop_url> </stop_url><stop_desc> </stop_desc><stop_name>CALDE'</stop_name><location_type>0</location_type><parent_station> </parent_station></row><row id=""><stop_lon>9.568936</stop_lon><stop_id>1846</stop_id><stop_code></stop_code><stop_lat>46.136579</stop_lat><stop_url> </stop_url><stop_desc> </stop_desc><stop_name>MORBEGNO</stop_name><location_type>0</location_type><parent_station> </parent_station></row><row id=""><stop_lon>9.130076</stop_lon><stop_id>872</stop_id><stop_code></stop_code><stop_lat>45.752315</stop_lat><stop_url> </stop_url><stop_desc> </stop_desc><stop_name>CANTU'</stop_name><location_type>0</location_type><parent_station> </parent_station></row><row id=""><stop_lon>9.301783</stop_lon><stop_id>1761</stop_id><stop_code></stop_code><stop_lat>45.780839</stop_lat><stop_url> </stop_url><stop_desc> </stop_desc><stop_name>MOLTENO</stop_name><location_type>0</location_type><parent_station> </parent_station></row><row id=""><stop_lon>10.027307</stop_lon><stop_id>2504</stop_id><stop_code></stop_code><stop_lat>46.15982</stop_lat><stop_url> </stop_url><stop_desc> </stop_desc><stop_name>S.GIACOMO DI TEGLIO</stop_name><location_type>0</location_type><parent_station> </parent_station></row><row id=""><stop_lon>9.730268</stop_lon><stop_id>3372</stop_id><stop_code></stop_code><stop_lat>45.343672</stop_lat><stop_url> </stop_url><stop_desc> </stop_desc><stop_name>MADIGNANO</stop_name><location_type>0</location_type><parent_station> </parent_station></row><row id=""><stop_lon>9.550367</stop_lon><stop_id>424</stop_id><stop_code></stop_code><stop_lat>45.722093</stop_lat><stop_url> </stop_url><stop_desc> </stop_desc><stop_name>AMBIVERE MAPELLO</stop_name><location_type>0</location_type><parent_station> </parent_station></row><row id=""><stop_lon>9.167479</stop_lon><stop_id>58</stop_id><stop_code></stop_code><stop_lat>45.443351</stop_lat><stop_url> </stop_url><stop_desc> </stop_desc><stop_name>MILANO ROMOLO</stop_name><location_type>0</location_type><parent_station> </parent_station></row><row id=""><stop_lon>9.124907</stop_lon><stop_id>964</stop_id><stop_code></stop_code><stop_lat>45.017247</stop_lat><stop_url> </stop_url><stop_desc> </stop_desc><stop_name>CASTEGGIO</stop_name><location_type>0</location_type><parent_station> </parent_station></row><row id=""><stop_lon>10.377249</stop_lon><stop_id>2513</stop_id><stop_code></stop_code><stop_lat>45.075771</stop_lat><stop_url> </stop_url><stop_desc> </stop_desc><stop_name>S.GIOVANNI IN CROCE</stop_name><location_type>0</location_type><parent_station> </parent_station></row><row id=""><stop_lon>9.806027</stop_lon><stop_id>1025</stop_id><stop_code></stop_code><stop_lat>46.161568</stop_lat><stop_url> </stop_url><stop_desc> </stop_desc><stop_name>CASTIONE ANDEVENNO</stop_name><location_type>0</location_type><parent_station> </parent_station></row><row id=""><stop_lon>9.306139</stop_lon><stop_id>1228</stop_id><stop_code></stop_code><stop_lat>46.077596</stop_lat><stop_url> </stop_url><stop_desc> </stop_desc><stop_name>DERVIO</stop_name><location_type>0</location_type><parent_station> </parent_station></row><row id=""><stop_lon>9.309304</stop_lon><stop_id>1565</stop_id><stop_code></stop_code><stop_lat>45.644667</stop_lat><stop_url> </stop_url><stop_desc> </stop_desc><stop_name>LESMO</stop_name><location_type>0</location_type><parent_station> </parent_station></row><row id=""><stop_lon>8.832364</stop_lon><stop_id>2994</stop_id><stop_code></stop_code><stop_lat>45.816444</stop_lat><stop_url> </stop_url><stop_desc> </stop_desc><stop_name>VARESE</stop_name><location_type>0</location_type><parent_station> </parent_station></row><row id=""><stop_lon>9.16134</stop_lon><stop_id>5069</stop_id><stop_code></stop_code><stop_lat>45.564943</stop_lat><stop_url> </stop_url><stop_desc> </stop_desc><stop_name>PADERNO DUGNANO</stop_name><location_type>0</location_type><parent_station> </parent_station></row><row id=""><stop_lon>10.34911</stop_lon><stop_id>813</stop_id><stop_code></stop_code><stop_lat>45.346679</stop_lat><stop_url> </stop_url><stop_desc> </stop_desc><stop_name>CALVISANO</stop_name><location_type>0</location_type><parent_station> </parent_station></row><row id=""><stop_lon>10.00597</stop_lon><stop_id>5372</stop_id><stop_code></stop_code><stop_lat>45.56575</stop_lat><stop_url> </stop_url><stop_desc> </stop_desc><stop_name>ROVATO CITTA'</stop_name><location_type>0</location_type><parent_station> </parent_station></row><row id=""><stop_lon>10.086994</stop_lon><stop_id>5375</stop_id><stop_code></stop_code><stop_lat>45.586939</stop_lat><stop_url> </stop_url><stop_desc> </stop_desc><stop_name>PADERNO</stop_name><location_type>0</location_type><parent_station> </parent_station></row><row id=""><stop_lon>10.019971</stop_lon><stop_id>5369</stop_id><stop_code></stop_code><stop_lat>45.622211</stop_lat><stop_url> </stop_url><stop_desc> </stop_desc><stop_name>BORGONATO-ADRO</stop_name><location_type>0</location_type><parent_station> </parent_station></row><row id=""><stop_lon>10.100783</stop_lon><stop_id>5366</stop_id><stop_code></stop_code><stop_lat>45.689782</stop_lat><stop_url> </stop_url><stop_desc> </stop_desc><stop_name>SULZANO</stop_name><location_type>0</location_type><parent_station> </parent_station></row><row id=""><stop_lon>10.221485</stop_lon><stop_id>5357</stop_id><stop_code></stop_code><stop_lat>45.916072</stop_lat><stop_url> </stop_url><stop_desc> </stop_desc><stop_name>PIAN DI BORNO</stop_name><location_type>0</location_type><parent_station> </parent_station></row><row id=""><stop_lon>10.241071</stop_lon><stop_id>5356</stop_id><stop_code></stop_code><stop_lat>45.929379</stop_lat><stop_url> </stop_url><stop_desc> </stop_desc><stop_name>COGNO-ESINE</stop_name><location_type>0</location_type><parent_station> </parent_station></row><row id=""><stop_lon>10.063348</stop_lon><stop_id>1317</stop_id><stop_code></stop_code><stop_lat>44.867588</stop_lat><stop_url> </stop_url><stop_desc> </stop_desc><stop_name>FIDENZA</stop_name><location_type>0</location_type><parent_station> </parent_station></row><row id=""><stop_lon>10.083706</stop_lon><stop_id>3022</stop_id><stop_code></stop_code><stop_lat>45.325002</stop_lat><stop_url> </stop_url><stop_desc> </stop_desc><stop_name>VEROLANUOVA</stop_name><location_type>0</location_type><parent_station> </parent_station></row><row id=""><stop_lon>8.838758</stop_lon><stop_id>1492</stop_id><stop_code></stop_code><stop_lat>45.847067</stop_lat><stop_url> </stop_url><stop_desc> </stop_desc><stop_name>INDUNO OLONA</stop_name><location_type>0</location_type><parent_station> </parent_station></row><row id=""><stop_lon>10.533727</stop_lon><stop_id>1645</stop_id><stop_code></stop_code><stop_lat>45.124381</stop_lat><stop_url> </stop_url><stop_desc> </stop_desc><stop_name>MARCARIA</stop_name><location_type>0</location_type><parent_station> </parent_station></row><row id=""><stop_lon>9.337667</stop_lon><stop_id>1930</stop_id><stop_code></stop_code><stop_lat>45.788912</stop_lat><stop_url> </stop_url><stop_desc> </stop_desc><stop_name>OGGIONO</stop_name><location_type>0</location_type><parent_station> </parent_station></row><row id=""><stop_lon>9.17235</stop_lon><stop_id>5066</stop_id><stop_code></stop_code><stop_lat>45.531987</stop_lat><stop_url> </stop_url><stop_desc> </stop_desc><stop_name>MILANO BRUZZANO PARCO NORD</stop_name><location_type>0</location_type><parent_station> </parent_station></row><row id=""><stop_lon>8.626435</stop_lon><stop_id>3589</stop_id><stop_code></stop_code><stop_lat>45.452082</stop_lat><stop_url> </stop_url><stop_desc> </stop_desc><stop_name>NOVARA FN</stop_name><location_type>0</location_type><parent_station> </parent_station></row><row id=""><stop_lon>8.887011</stop_lon><stop_id>5317</stop_id><stop_code></stop_code><stop_lat>45.777289</stop_lat><stop_url> </stop_url><stop_desc> </stop_desc><stop_name>VEDANO OLONA</stop_name><location_type>0</location_type><parent_station> </parent_station></row><row id=""><stop_lon>8.667349</stop_lon><stop_id>5327</stop_id><stop_code></stop_code><stop_lat>45.892467</stop_lat><stop_url> </stop_url><stop_desc> </stop_desc><stop_name>CITTIGLIO</stop_name><location_type>0</location_type><parent_station> </parent_station></row><row id=""><stop_lon>9.917326</stop_lon><stop_id>1324</stop_id><stop_code></stop_code><stop_lat>44.928697</stop_lat><stop_url> </stop_url><stop_desc> </stop_desc><stop_name>FIORENZUOLA</stop_name><location_type>0</location_type><parent_station> </parent_station></row><row id=""><stop_lon>10.328237</stop_lon><stop_id>2035</stop_id><stop_code></stop_code><stop_lat>44.810001</stop_lat><stop_url> </stop_url><stop_desc> </stop_desc><stop_name>PARMA</stop_name><location_type>0</location_type><parent_station> </parent_station></row><row id=""><stop_lon>9.359252</stop_lon><stop_id>2612</stop_id><stop_code></stop_code><stop_lat>45.821334</stop_lat><stop_url> </stop_url><stop_desc> </stop_desc><stop_name>SALA AL BARRO-GALBIATE</stop_name><location_type>0</location_type><parent_station> </parent_station></row><row id=""><stop_lon>9.105011</stop_lon><stop_id>1187</stop_id><stop_code></stop_code><stop_lat>45.434543</stop_lat><stop_url> </stop_url><stop_desc> </stop_desc><stop_name>CORSICO</stop_name><location_type>0</location_type><parent_station> </parent_station></row><row id=""><stop_lon>9.511601</stop_lon><stop_id>2235</stop_id><stop_code></stop_code><stop_lat>45.73008</stop_lat><stop_url> </stop_url><stop_desc> </stop_desc><stop_name>PONTIDA</stop_name><location_type>0</location_type><parent_station> </parent_station></row><row id=""><stop_lon>9.575341</stop_lon><stop_id>1969</stop_id><stop_code></stop_code><stop_lat>45.169244</stop_lat><stop_url> </stop_url><stop_desc> </stop_desc><stop_name>OSPEDALETTO LODIGIANO</stop_name><location_type>0</location_type><parent_station> </parent_station></row><row id=""><stop_lon>9.8949</stop_lon><stop_id>2015</stop_id><stop_code></stop_code><stop_lat>45.602376</stop_lat><stop_url> </stop_url><stop_desc> </stop_desc><stop_name>PALAZZOLO SULL'OGLIO</stop_name><location_type>0</location_type><parent_station> </parent_station></row><row id=""><stop_lon>8.86189</stop_lon><stop_id>3053</stop_id><stop_code></stop_code><stop_lat>45.312778</stop_lat><stop_url> </stop_url><stop_desc> </stop_desc><stop_name>VIGEVANO</stop_name><location_type>0</location_type><parent_station> </parent_station></row><row id=""><stop_lon>8.787788</stop_lon><stop_id>5334</stop_id><stop_code></stop_code><stop_lat>45.577694</stop_lat><stop_url> </stop_url><stop_desc> </stop_desc><stop_name>VANZAGHELLO-MAGNAGO</stop_name><location_type>0</location_type><parent_station> </parent_station></row><row id=""><stop_lon>9.204043</stop_lon><stop_id>1749</stop_id><stop_code></stop_code><stop_lat>45.340261</stop_lat><stop_url> </stop_url><stop_desc> </stop_desc><stop_name>PIEVE EMANUELE</stop_name><location_type>0</location_type><parent_station> </parent_station></row><row id=""><stop_lon>9.245884</stop_lon><stop_id>3169</stop_id><stop_code></stop_code><stop_lat>45.471558</stop_lat><stop_url> </stop_url><stop_desc> </stop_desc><stop_name>MILANO FORLANINI</stop_name><location_type>0</location_type><parent_station> </parent_station></row><row id=""><stop_lon>9.137082</stop_lon><stop_id>736</stop_id><stop_code></stop_code><stop_lat>45.072833</stop_lat><stop_url> </stop_url><stop_desc> </stop_desc><stop_name>BRESSANA ARGINE</stop_name><location_type>0</location_type><parent_station> </parent_station></row><row id=""><stop_lon>9.175596</stop_lon><stop_id>5053</stop_id><stop_code></stop_code><stop_lat>45.468359</stop_lat><stop_url> </stop_url><stop_desc> </stop_desc><stop_name>MILANO CADORNA</stop_name><location_type>0</location_type><parent_station> </parent_station></row><row id=""><stop_lon>9.888637</stop_lon><stop_id>374</stop_id><stop_code></stop_code><stop_lat>45.171831</stop_lat><stop_url> </stop_url><stop_desc> </stop_desc><stop_name>ACQUANEGRA CREMONESE</stop_name><location_type>0</location_type><parent_station> </parent_station></row><row id=""><stop_lon>8.73927</stop_lon><stop_id>2909</stop_id><stop_code></stop_code><stop_lat>45.428625</stop_lat><stop_url> </stop_url><stop_desc> </stop_desc><stop_name>TRECATE</stop_name><location_type>0</location_type><parent_station> </parent_station></row><row id=""><stop_lon>9.3756</stop_lon><stop_id>1139</stop_id><stop_code></stop_code><stop_lat>46.137793</stop_lat><stop_url> </stop_url><stop_desc> </stop_desc><stop_name>COLICO</stop_name><location_type>0</location_type><parent_station> </parent_station></row><row id=""><stop_lon>10.130532</stop_lon><stop_id>3071</stop_id><stop_code></stop_code><stop_lat>46.196256</stop_lat><stop_url> </stop_url><stop_desc> </stop_desc><stop_name>VILLA DI TIRANO</stop_name><location_type>0</location_type><parent_station> </parent_station></row><row id=""><stop_lon>8.864700</stop_lon><stop_id>766</stop_id><stop_code></stop_code><stop_lat>45.616019</stop_lat><stop_url> </stop_url><stop_desc> </stop_desc><stop_name>BUSTO ARSIZIO</stop_name><location_type>0</location_type><parent_station> </parent_station></row><row id=""><stop_lon>9.19049</stop_lon><stop_id>3092</stop_id><stop_code></stop_code><stop_lat>45.320377</stop_lat><stop_url> </stop_url><stop_desc> </stop_desc><stop_name>VILLAMAGGIORE</stop_name><location_type>0</location_type><parent_station> </parent_station></row><row id=""><stop_lon>8.671426</stop_lon><stop_id>1899</stop_id><stop_code></stop_code><stop_lat>45.275547</stop_lat><stop_url> </stop_url><stop_desc> </stop_desc><stop_name>NICORVO</stop_name><location_type>0</location_type><parent_station> </parent_station></row><row id=""><stop_lon>8.88511</stop_lon><stop_id>199</stop_id><stop_code></stop_code><stop_lat>44.692304</stop_lat><stop_url> </stop_url><stop_desc> </stop_desc><stop_name>ARQUATA SCRIVIA</stop_name><location_type>0</location_type><parent_station> </parent_station></row><row id=""><stop_lon>8.99165</stop_lon><stop_id>1467</stop_id><stop_code></stop_code><stop_lat>45.173222</stop_lat><stop_url> </stop_url><stop_desc> </stop_desc><stop_name>GROPELLO CAIROLI</stop_name><location_type>0</location_type><parent_station> </parent_station></row><row id=""><stop_lon>9.992248</stop_lon><stop_id>1100</stop_id><stop_code></stop_code><stop_lat>46.164592</stop_lat><stop_url> </stop_url><stop_desc> </stop_desc><stop_name>CHIURO</stop_name><location_type>0</location_type><parent_station> </parent_station></row><row id=""><stop_lon>8.955131</stop_lon><stop_id>5311</stop_id><stop_code></stop_code><stop_lat>45.677752</stop_lat><stop_url> </stop_url><stop_desc> </stop_desc><stop_name>MOZZATE</stop_name><location_type>0</location_type><parent_station> </parent_station></row><row id=""><stop_lon>9.934001</stop_lon><stop_id>2195</stop_id><stop_code></stop_code><stop_lat>46.166966</stop_lat><stop_url> </stop_url><stop_desc> </stop_desc><stop_name>POGGIRIDENTI-TRESIVIO-PIATEDA</stop_name><location_type>0</location_type><parent_station> </parent_station></row><row id=""><stop_lon>8.999737</stop_lon><stop_id>3134</stop_id><stop_code></stop_code><stop_lat>45.124527</stop_lat><stop_url> </stop_url><stop_desc> </stop_desc><stop_name>ZINASCO NUOVO</stop_name><location_type>0</location_type><parent_station> </parent_station></row><row id=""><stop_lon>9.279901</stop_lon><stop_id>950</stop_id><stop_code></stop_code><stop_lat>45.746092</stop_lat><stop_url> </stop_url><stop_desc> </stop_desc><stop_name>CASSAGO-NIBIONNO-BULCIAGO</stop_name><location_type>0</location_type><parent_station> </parent_station></row><row id=""><stop_lon>8.799164</stop_lon><stop_id>1585</stop_id><stop_code></stop_code><stop_lat>45.11735</stop_lat><stop_url> </stop_url><stop_desc> </stop_desc><stop_name>LOMELLO</stop_name><location_type>0</location_type><parent_station> </parent_station></row><row id=""><stop_lon>8.624394</stop_lon><stop_id>1542</stop_id><stop_code></stop_code><stop_lat>45.903206</stop_lat><stop_url> </stop_url><stop_desc> </stop_desc><stop_name>LAVENO MOMBELLO</stop_name><location_type>0</location_type><parent_station> </parent_station></row><row id=""><stop_lon>8.711128</stop_lon><stop_id>5266</stop_id><stop_code></stop_code><stop_lat>45.62712</stop_lat><stop_url> </stop_url><stop_desc> </stop_desc><stop_name>MALPENSA AEROPORTO T.1</stop_name><location_type>0</location_type><parent_station> </parent_station></row><row id=""><stop_lon>9.302791</stop_lon><stop_id>1575</stop_id><stop_code></stop_code><stop_lat>45.960908</stop_lat><stop_url> </stop_url><stop_desc> </stop_desc><stop_name>LIERNA</stop_name><location_type>0</location_type><parent_station> </parent_station></row><row id=""><stop_lon>8.666421</stop_lon><stop_id>1404</stop_id><stop_code></stop_code><stop_lat>45.385638</stop_lat><stop_url> </stop_url><stop_desc> </stop_desc><stop_name>GARBAGNA</stop_name><location_type>0</location_type><parent_station> </parent_station></row><row id=""><stop_lon>9.38719</stop_lon><stop_id>1964</stop_id><stop_code></stop_code><stop_lat>45.678597</stop_lat><stop_url> </stop_url><stop_desc> </stop_desc><stop_name>OSNAGO</stop_name><location_type>0</location_type><parent_station> </parent_station></row><row id=""><stop_lon>10.083826</stop_lon><stop_id>2916</stop_id><stop_code></stop_code><stop_lat>46.162235</stop_lat><stop_url> </stop_url><stop_desc> </stop_desc><stop_name>TRESENDA-APRICA-TEGLIO</stop_name><location_type>0</location_type><parent_station> </parent_station></row><row id=""><stop_lon>9.494103</stop_lon><stop_id>1093</stop_id><stop_code></stop_code><stop_lat>45.1608</stop_lat><stop_url> </stop_url><stop_desc> </stop_desc><stop_name>CHIGNOLO PO</stop_name><location_type>0</location_type><parent_station> </parent_station></row><row id=""><stop_lon>9.316975</stop_lon><stop_id>615</stop_id><stop_code></stop_code><stop_lat>45.164444</stop_lat><stop_url> </stop_url><stop_desc> </stop_desc><stop_name>BELGIOIOSO</stop_name><location_type>0</location_type><parent_station> </parent_station></row><row id=""><stop_lon>10.286894</stop_lon><stop_id>2881</stop_id><stop_code></stop_code><stop_lat>45.137311</stop_lat><stop_url> </stop_url><stop_desc> </stop_desc><stop_name>TORRE DE' PICENARDI</stop_name><location_type>0</location_type><parent_station> </parent_station></row><row id=""><stop_lon>9.13452</stop_lon><stop_id>1708</stop_id><stop_code></stop_code><stop_lat>45.506948</stop_lat><stop_url> </stop_url><stop_desc> </stop_desc><stop_name>MILANO CERTOSA</stop_name><location_type>0</location_type><parent_station> </parent_station></row><row id=""><stop_lon>9.300823</stop_lon><stop_id>2790</stop_id><stop_code></stop_code><stop_lat>45.079286</stop_lat><stop_url> </stop_url><stop_desc> </stop_desc><stop_name>STRADELLA</stop_name><location_type>0</location_type><parent_station> </parent_station></row><row id=""><stop_lon>9.319394</stop_lon><stop_id>1688</stop_id><stop_code></stop_code><stop_lat>45.356509</stop_lat><stop_url> </stop_url><stop_desc> </stop_desc><stop_name>MELEGNANO</stop_name><location_type>0</location_type><parent_station> </parent_station></row><row id=""><stop_lon>9.16966</stop_lon><stop_id>1716</stop_id><stop_code></stop_code><stop_lat>45.453198</stop_lat><stop_url> </stop_url><stop_desc> </stop_desc><stop_name>MILANO PORTA GENOVA</stop_name><location_type>0</location_type><parent_station> </parent_station></row><row id=""><stop_lon>8.751125</stop_lon><stop_id>5322</stop_id><stop_code></stop_code><stop_lat>45.83534</stop_lat><stop_url> </stop_url><stop_desc> </stop_desc><stop_name>BARASSO-COMERIO</stop_name><location_type>0</location_type><parent_station> </parent_station></row><row id=""><stop_lon>9.088644</stop_lon><stop_id>3098</stop_id><stop_code></stop_code><stop_lat>45.51561</stop_lat><stop_url> </stop_url><stop_desc> </stop_desc><stop_name>RHO FIERA</stop_name><location_type>0</location_type><parent_station> </parent_station></row><row id=""><stop_lon>9.301289</stop_lon><stop_id>768</stop_id><stop_code></stop_code><stop_lat>45.621382</stop_lat><stop_url> </stop_url><stop_desc> </stop_desc><stop_name>BUTTAFAVA</stop_name><location_type>0</location_type><parent_station> </parent_station></row><row id=""><stop_lon>8.624514</stop_lon><stop_id>1917</stop_id><stop_code></stop_code><stop_lat>45.451094</stop_lat><stop_url> </stop_url><stop_desc> </stop_desc><stop_name>NOVARA</stop_name><location_type>0</location_type><parent_station> </parent_station></row><row id=""><stop_lon>9.436856</stop_lon><stop_id>975</stop_id><stop_code></stop_code><stop_lat>45.063071</stop_lat><stop_url> </stop_url><stop_desc> </stop_desc><stop_name>CASTEL S.GIOVANNI</stop_name><location_type>0</location_type><parent_station> </parent_station></row><row id=""><stop_lon>9.066851</stop_lon><stop_id>2923</stop_id><stop_code></stop_code><stop_lat>45.420203</stop_lat><stop_url> </stop_url><stop_desc> </stop_desc><stop_name>TREZZANO SUL NAVIGLIO</stop_name><location_type>0</location_type><parent_station> </parent_station></row><row id=""><stop_lon>9.030748</stop_lon><stop_id>5048</stop_id><stop_code></stop_code><stop_lat>45.625316</stop_lat><stop_url> </stop_url><stop_desc> </stop_desc><stop_name>SARONNO</stop_name><location_type>0</location_type><parent_station> </parent_station></row><row id=""><stop_lon>8.910918</stop_lon><stop_id>1554</stop_id><stop_code></stop_code><stop_lat>45.593625</stop_lat><stop_url> </stop_url><stop_desc> </stop_desc><stop_name>LEGNANO</stop_name><location_type>0</location_type><parent_station> </parent_station></row><row id=""><stop_lon>9.456691</stop_lon><stop_id>380</stop_id><stop_code></stop_code><stop_lat>45.508576</stop_lat><stop_url> </stop_url><stop_desc> </stop_desc><stop_name>POZZUOLO MARTESANA</stop_name><location_type>0</location_type><parent_station> </parent_station></row><row id=""><stop_lon>9.427125</stop_lon><stop_id>807</stop_id><stop_code></stop_code><stop_lat>45.801818</stop_lat><stop_url> </stop_url><stop_desc> </stop_desc><stop_name>CALOLZIOCORTE OLGINATE</stop_name><location_type>0</location_type><parent_station> </parent_station></row><row id=""><stop_lon>8.893948</stop_lon><stop_id>5263</stop_id><stop_code></stop_code><stop_lat>45.613557</stop_lat><stop_url> </stop_url><stop_desc> </stop_desc><stop_name>CASTELLANZA</stop_name><location_type>0</location_type><parent_station> </parent_station></row><row id=""><stop_lon>8.917908</stop_lon><stop_id>1174</stop_id><stop_code></stop_code><stop_lat>45.480865</stop_lat><stop_url> </stop_url><stop_desc> </stop_desc><stop_name>CORBETTA-S.STEFANO TICINO</stop_name><location_type>0</location_type><parent_station> </parent_station></row><row id=""><stop_lon>10.211875</stop_lon><stop_id>2603</stop_id><stop_code></stop_code><stop_lat>45.491487</stop_lat><stop_url> </stop_url><stop_desc> </stop_desc><stop_name>S.ZENO FOLZANO</stop_name><location_type>0</location_type><parent_station> </parent_station></row><row id=""><stop_lon>8.862649</stop_lon><stop_id>451</stop_id><stop_code></stop_code><stop_lat>45.858723</stop_lat><stop_url> </stop_url><stop_desc> </stop_desc><stop_name>ARCISATE</stop_name><location_type>0</location_type><parent_station> </parent_station></row><row id=""><stop_lon>8.703082</stop_lon><stop_id>698</stop_id><stop_code></stop_code><stop_lat>45.318727</stop_lat><stop_url> </stop_url><stop_desc> </stop_desc><stop_name>BORGO LAVEZZARO</stop_name><location_type>0</location_type><parent_station> </parent_station></row><row id=""><stop_lon>8.62607</stop_lon><stop_id>2973</stop_id><stop_code></stop_code><stop_lat>45.023451</stop_lat><stop_url> </stop_url><stop_desc> </stop_desc><stop_name>VALENZA</stop_name><location_type>0</location_type><parent_station> </parent_station></row><row id=""><stop_lon>8.742553</stop_lon><stop_id>1682</stop_id><stop_code></stop_code><stop_lat>45.095125</stop_lat><stop_url> </stop_url><stop_desc> </stop_desc><stop_name>MEDE</stop_name><location_type>0</location_type><parent_station> </parent_station></row><row id=""><stop_lon>10.338974</stop_lon><stop_id>5353</stop_id><stop_code></stop_code><stop_lat>45.996833</stop_lat><stop_url> </stop_url><stop_desc> </stop_desc><stop_name>CETO-CERVENO</stop_name><location_type>0</location_type><parent_station> </parent_station></row><row id=""><stop_lon>10.118224</stop_lon><stop_id>5376</stop_id><stop_code></stop_code><stop_lat>45.566256</stop_lat><stop_url> </stop_url><stop_desc> </stop_desc><stop_name>CASTEGNATO</stop_name><location_type>0</location_type><parent_station> </parent_station></row><row id=""><stop_lon>10.020001</stop_lon><stop_id>5374</stop_id><stop_code></stop_code><stop_lat>45.622239</stop_lat><stop_url> </stop_url><stop_desc> </stop_desc><stop_name>PASSIRANO</stop_name><location_type>0</location_type><parent_station> </parent_station></row><row id=""><stop_lon>10.138753</stop_lon><stop_id>5361</stop_id><stop_code></stop_code><stop_lat>45.840023</stop_lat><stop_url> </stop_url><stop_desc> </stop_desc><stop_name>PIANCAMUNO-GRATACASOLO</stop_name><location_type>0</location_type><parent_station> </parent_station></row><row id=""><stop_lon>10.190793</stop_lon><stop_id>5359</stop_id><stop_code></stop_code><stop_lat>45.892036</stop_lat><stop_url> </stop_url><stop_desc> </stop_desc><stop_name>BOARIO TERME</stop_name><location_type>0</location_type><parent_station> </parent_station></row><row id=""><stop_lon>9.080171</stop_lon><stop_id>5061</stop_id><stop_code></stop_code><stop_lat>45.580271</stop_lat><stop_url> </stop_url><stop_desc> </stop_desc><stop_name>GARBAGNATE MILANESE</stop_name><location_type>0</location_type><parent_station> </parent_station></row><row id=""><stop_lon>9.225603</stop_lon><stop_id>5095</stop_id><stop_code></stop_code><stop_lat>45.829169</stop_lat><stop_url> </stop_url><stop_desc> </stop_desc><stop_name>PONTELAMBRO-CASTELMARTE</stop_name><location_type>0</location_type><parent_station> </parent_station></row><row id=""><stop_lon>9.285118</stop_lon><stop_id>1193</stop_id><stop_code></stop_code><stop_lat>45.763496</stop_lat><stop_url> </stop_url><stop_desc> </stop_desc><stop_name>COSTA MASNAGA</stop_name><location_type>0</location_type><parent_station> </parent_station></row><row id=""><stop_lon>9.458547</stop_lon><stop_id>3013</stop_id><stop_code></stop_code><stop_lat>46.202724</stop_lat><stop_url> </stop_url><stop_desc> </stop_desc><stop_name>VERCEIA</stop_name><location_type>0</location_type><parent_station> </parent_station></row><row id=""><stop_lon>9.935388</stop_lon><stop_id>1151</stop_id><stop_code></stop_code><stop_lat>45.576682</stop_lat><stop_url> </stop_url><stop_desc> </stop_desc><stop_name>COLOGNE</stop_name><location_type>0</location_type><parent_station> </parent_station></row><row id=""><stop_lon>9.401121</stop_lon><stop_id>2481</stop_id><stop_code></stop_code><stop_lat>45.16048</stop_lat><stop_url> </stop_url><stop_desc> </stop_desc><stop_name>S.CRISTINA E BISSONE</stop_name><location_type>0</location_type><parent_station> </parent_station></row><row id=""><stop_lon>10.166827</stop_lon><stop_id>2850</stop_id><stop_code></stop_code><stop_lat>46.215083</stop_lat><stop_url> </stop_url><stop_desc> </stop_desc><stop_name>TIRANO</stop_name><location_type>0</location_type><parent_station> </parent_station></row><row id=""><stop_lon>9.767441</stop_lon><stop_id>397</stop_id><stop_code></stop_code><stop_lat>45.682871</stop_lat><stop_url> </stop_url><stop_desc> </stop_desc><stop_name>ALBANO S.ALESSANDRO</stop_name><location_type>0</location_type><parent_station> </parent_station></row><row id=""><stop_lon>9.631486</stop_lon><stop_id>932</stop_id><stop_code></stop_code><stop_lat>45.409183</stop_lat><stop_url> </stop_url><stop_desc> </stop_desc><stop_name>CASALETTO VAPRIO</stop_name><location_type>0</location_type><parent_station> </parent_station></row><row id=""><stop_lon>9.040981</stop_lon><stop_id>5340</stop_id><stop_code></stop_code><stop_lat>45.729837</stop_lat><stop_url> </stop_url><stop_desc> </stop_desc><stop_name>CADORAGO</stop_name><location_type>0</location_type><parent_station> </parent_station></row><row id=""><stop_lon>9.090859</stop_lon><stop_id>5345</stop_id><stop_code></stop_code><stop_lat>45.804912</stop_lat><stop_url> </stop_url><stop_desc> </stop_desc><stop_name>COMO BORGHI</stop_name><location_type>0</location_type><parent_station> </parent_station></row><row id=""><stop_lon>9.084197</stop_lon><stop_id>5346</stop_id><stop_code></stop_code><stop_lat>45.814169</stop_lat><stop_url> </stop_url><stop_desc> </stop_desc><stop_name>COMO LAGO</stop_name><location_type>0</location_type><parent_station> </parent_station></row><row id=""><stop_lon>9.005024</stop_lon><stop_id>85053</stop_id><stop_code></stop_code><stop_lat>45.847170</stop_lat><stop_url> </stop_url><stop_desc> </stop_desc><stop_name>BALERNA</stop_name><location_type>0</location_type><parent_station> </parent_station></row><row id=""><stop_lon>9.218221</stop_lon><stop_id>1230</stop_id><stop_code></stop_code><stop_lat>45.620174</stop_lat><stop_url> </stop_url><stop_desc> </stop_desc><stop_name>DESIO</stop_name><location_type>0</location_type><parent_station> </parent_station></row><row id=""><stop_lon>8.862877</stop_lon><stop_id>1311</stop_id><stop_code></stop_code><stop_lat>45.111857</stop_lat><stop_url> </stop_url><stop_desc> </stop_desc><stop_name>FERRERA LOMELLINA</stop_name><location_type>0</location_type><parent_station> </parent_station></row><row id=""><stop_lon>9.397865</stop_lon><stop_id>2477</stop_id><stop_code></stop_code><stop_lat>46.274156</stop_lat><stop_url> </stop_url><stop_desc> </stop_desc><stop_name>S.CASSIANO VALCHIAVENNA</stop_name><location_type>0</location_type><parent_station> </parent_station></row><row id=""><stop_lon>9.636855</stop_lon><stop_id>3048</stop_id><stop_code></stop_code><stop_lat>45.517692</stop_lat><stop_url> </stop_url><stop_desc> </stop_desc><stop_name>VIDALENGO</stop_name><location_type>0</location_type><parent_station> </parent_station></row><row id=""><stop_lon>9.23852</stop_lon><stop_id>5092</stop_id><stop_code></stop_code><stop_lat>45.761513</stop_lat><stop_url> </stop_url><stop_desc> </stop_desc><stop_name>LAMBRUGO-LURAGO</stop_name><location_type>0</location_type><parent_station> </parent_station></row><row id=""><stop_lon>8.906964</stop_lon><stop_id>5314</stop_id><stop_code></stop_code><stop_lat>45.710401</stop_lat><stop_url> </stop_url><stop_desc> </stop_desc><stop_name>TRADATE</stop_name><location_type>0</location_type><parent_station> </parent_station></row><row id=""><stop_lon>9.266968</stop_lon><stop_id>1605</stop_id><stop_code></stop_code><stop_lat>45.642445</stop_lat><stop_url> </stop_url><stop_desc> </stop_desc><stop_name>MACHERIO SOVICO</stop_name><location_type>0</location_type><parent_station> </parent_station></row><row id=""><stop_lon>9.069128</stop_lon><stop_id>1596</stop_id><stop_code></stop_code><stop_lat>45.049744</stop_lat><stop_url> </stop_url><stop_desc> </stop_desc><stop_name>PIZZALE-LUNGAVILLA</stop_name><location_type>0</location_type><parent_station> </parent_station></row><row id=""><stop_lon>10.331944</stop_lon><stop_id>3038</stop_id><stop_code></stop_code><stop_lat>45.373712</stop_lat><stop_url> </stop_url><stop_desc> </stop_desc><stop_name>VIADANA BRESCIANA</stop_name><location_type>0</location_type><parent_station> </parent_station></row><row id=""><stop_lon>9.474504</stop_lon><stop_id>1111</stop_id><stop_code></stop_code><stop_lat>45.739701</stop_lat><stop_url> </stop_url><stop_desc> </stop_desc><stop_name>CISANO CAPRINO BERGAMASCO</stop_name><location_type>0</location_type><parent_station> </parent_station></row><row id=""><stop_lon>9.298307</stop_lon><stop_id>3507</stop_id><stop_code></stop_code><stop_lat>45.480746</stop_lat><stop_url> </stop_url><stop_desc> </stop_desc><stop_name>SEGRATE</stop_name><location_type>0</location_type><parent_station> </parent_station></row><row id=""><stop_lon>9.18324</stop_lon><stop_id>731</stop_id><stop_code></stop_code><stop_lat>45.754185</stop_lat><stop_url> </stop_url><stop_desc> </stop_desc><stop_name>BRENNA-ALZATE</stop_name><location_type>0</location_type><parent_station> </parent_station></row><row id=""><stop_lon>10.239322</stop_lon><stop_id>1835</stop_id><stop_code></stop_code><stop_lat>45.451261</stop_lat><stop_url> </stop_url><stop_desc> </stop_desc><stop_name>MONTIRONE</stop_name><location_type>0</location_type><parent_station> </parent_station></row><row id=""><stop_lon>10.379049</stop_lon><stop_id>2335</stop_id><stop_code></stop_code><stop_lat>45.278329</stop_lat><stop_url> </stop_url><stop_desc> </stop_desc><stop_name>REMEDELLO SOPRA</stop_name><location_type>0</location_type><parent_station> </parent_station></row><row id=""><stop_lon>8.597161</stop_lon><stop_id>2391</stop_id><stop_code></stop_code><stop_lat>45.2934</stop_lat><stop_url> </stop_url><stop_desc> </stop_desc><stop_name>ROBBIO</stop_name><location_type>0</location_type><parent_station> </parent_station></row><row id=""><stop_lon>9.080098</stop_lon><stop_id>5049</stop_id><stop_code></stop_code><stop_lat>45.624993</stop_lat><stop_url> </stop_url><stop_desc> </stop_desc><stop_name>CERIANO LAGHETTO-SOLARO</stop_name><location_type>0</location_type><parent_station> </parent_station></row><row id=""><stop_lon>10.181062</stop_lon><stop_id>5151</stop_id><stop_code></stop_code><stop_lat>45.884297</stop_lat><stop_url> </stop_url><stop_desc> </stop_desc><stop_name>DARFO-CORNA</stop_name><location_type>0</location_type><parent_station> </parent_station></row><row id=""><stop_lon>8.958227</stop_lon><stop_id>779</stop_id><stop_code></stop_code><stop_lat>45.404354</stop_lat><stop_url> </stop_url><stop_desc> </stop_desc><stop_name>ALBAIRATE-VERMEZZO</stop_name><location_type>0</location_type><parent_station> </parent_station></row><row id=""><stop_lon>9.202954</stop_lon><stop_id>1728</stop_id><stop_code></stop_code><stop_lat>45.485188</stop_lat><stop_url> </stop_url><stop_desc> </stop_desc><stop_name>MILANO CENTRALE</stop_name><location_type>0</location_type><parent_station> </parent_station></row><row id=""><stop_lon>8.861691</stop_lon><stop_id>332</stop_id><stop_code></stop_code><stop_lat>44.899819</stop_lat><stop_url> </stop_url><stop_desc> </stop_desc><stop_name>TORTONA</stop_name><location_type>0</location_type><parent_station> </parent_station></row><row id=""><stop_lon>9.031338</stop_lon><stop_id>1386</stop_id><stop_code></stop_code><stop_lat>45.408791</stop_lat><stop_url> </stop_url><stop_desc> </stop_desc><stop_name>GAGGIANO</stop_name><location_type>0</location_type><parent_station> </parent_station></row><row id=""><stop_lon>9.723029</stop_lon><stop_id>2589</stop_id><stop_code></stop_code><stop_lat>45.121991</stop_lat><stop_url> </stop_url><stop_desc> </stop_desc><stop_name>S.STEFANO LODIGIANO</stop_name><location_type>0</location_type><parent_station> </parent_station></row><row id=""><stop_lon>9.777113</stop_lon><stop_id>2164</stop_id><stop_code></stop_code><stop_lat>45.181893</stop_lat><stop_url> </stop_url><stop_desc> </stop_desc><stop_name>PIZZIGHETTONE</stop_name><location_type>0</location_type><parent_station> </parent_station></row><row id=""><stop_lon>9.158918</stop_lon><stop_id>5086</stop_id><stop_code></stop_code><stop_lat>45.662452</stop_lat><stop_url> </stop_url><stop_desc> </stop_desc><stop_name>MEDA</stop_name><location_type>0</location_type><parent_station> </parent_station></row><row id=""><stop_lon>9.701649</stop_lon><stop_id>1134</stop_id><stop_code></stop_code><stop_lat>45.155116</stop_lat><stop_url> </stop_url><stop_desc> </stop_desc><stop_name>CODOGNO</stop_name><location_type>0</location_type><parent_station> </parent_station></row><row id=""><stop_lon>9.375055</stop_lon><stop_id>905</stop_id><stop_code></stop_code><stop_lat>45.653187</stop_lat><stop_url> </stop_url><stop_desc> </stop_desc><stop_name>CARNATE USMATE</stop_name><location_type>0</location_type><parent_station> </parent_station></row><row id=""><stop_lon>9.072926</stop_lon><stop_id>1158</stop_id><stop_code></stop_code><stop_lat>45.809108</stop_lat><stop_url> </stop_url><stop_desc> </stop_desc><stop_name>COMO S.GIOVANNI</stop_name><location_type>0</location_type><parent_station> </parent_station></row><row id=""><stop_lon>8.737411</stop_lon><stop_id>1593</stop_id><stop_code></stop_code><stop_lat>45.996876</stop_lat><stop_url> </stop_url><stop_desc> </stop_desc><stop_name>LUINO</stop_name><location_type>0</location_type><parent_station> </parent_station></row><row id=""><stop_lon>9.319217</stop_lon><stop_id>1258</stop_id><stop_code></stop_code><stop_lat>46.102706</stop_lat><stop_url> </stop_url><stop_desc> </stop_desc><stop_name>DORIO</stop_name><location_type>0</location_type><parent_station> </parent_station></row><row id=""><stop_lon>10.112124</stop_lon><stop_id>3109</stop_id><stop_code></stop_code><stop_lat>45.136891</stop_lat><stop_url> </stop_url><stop_desc> </stop_desc><stop_name>VILLETTA MALAGNINO</stop_name><location_type>0</location_type><parent_station> </parent_station></row><row id=""><stop_lon>9.650937</stop_lon><stop_id>455</stop_id><stop_code></stop_code><stop_lat>46.161629</stop_lat><stop_url> </stop_url><stop_desc> </stop_desc><stop_name>ARDENNO MASINO</stop_name><location_type>0</location_type><parent_station> </parent_station></row><row id=""><stop_lon>9.156622</stop_lon><stop_id>5070</stop_id><stop_code></stop_code><stop_lat>45.581</stop_lat><stop_url> </stop_url><stop_desc> </stop_desc><stop_name>PALAZZOLO MILANESE</stop_name><location_type>0</location_type><parent_station> </parent_station></row><row id=""><stop_lon>9.045529</stop_lon><stop_id>5064</stop_id><stop_code></stop_code><stop_lat>45.612351</stop_lat><stop_url> </stop_url><stop_desc> </stop_desc><stop_name>SARONNO SUD</stop_name><location_type>0</location_type><parent_station> </parent_station></row><row id=""><stop_lon>10.350063</stop_lon><stop_id>5350</stop_id><stop_code></stop_code><stop_lat>46.072507</stop_lat><stop_url> </stop_url><stop_desc> </stop_desc><stop_name>CEDEGOLO</stop_name><location_type>0</location_type><parent_station> </parent_station></row><row id=""><stop_lon>10.351353</stop_lon><stop_id>5347</stop_id><stop_code></stop_code><stop_lat>